{"protocolSection":{"identificationModule":{"nctId":"NCT00082745","nctIdAliases":["NCT00228787"],"orgStudyIdInfo":{"id":"ALTE03N1"},"secondaryIdInfos":[{"id":"COG-ALTE03N1","domain":"CTRP (Clinical Trial Reporting Program)"},{"id":"CDR0000360708"},{"id":"ALTE03N1","type":"OTHER","domain":"Childrens Oncology Group"},{"id":"ALTE03N1","type":"OTHER","domain":"CTEP"},{"id":"U10CA180886","type":"NIH","link":"https://reporter.nih.gov/quickSearch/U10CA180886"},{"id":"U10CA095861","type":"NIH","link":"https://reporter.nih.gov/quickSearch/U10CA095861"},{"id":"UG1CA189955","type":"NIH","link":"https://reporter.nih.gov/quickSearch/UG1CA189955"},{"id":"UG1CA189958","type":"NIH","link":"https://reporter.nih.gov/quickSearch/UG1CA189958"}],"organization":{"fullName":"Children's Oncology Group","class":"NETWORK"},"briefTitle":"Genetic Analysis in Identifying Late-Occurring Complications in Childhood Cancer Survivors","officialTitle":"Key Adverse Events After Childhood Cancer"},"statusModule":{"statusVerifiedDate":"2024-04","overallStatus":"RECRUITING","expandedAccessInfo":{"hasExpandedAccess":false},"startDateStruct":{"date":"2004-03-25","type":"ACTUAL"},"primaryCompletionDateStruct":{"date":"2004-12-31","type":"ACTUAL"},"studyFirstSubmitDate":"2004-05-14","studyFirstSubmitQcDate":"2004-05-18","studyFirstPostDateStruct":{"date":"2004-05-19","type":"ESTIMATED"},"lastUpdateSubmitDate":"2024-04-05","lastUpdatePostDateStruct":{"date":"2024-04-08","type":"ACTUAL"}},"sponsorCollaboratorsModule":{"responsibleParty":{"type":"SPONSOR"},"leadSponsor":{"name":"Children's Oncology Group","class":"NETWORK"},"collaborators":[{"name":"National Cancer Institute (NCI)","class":"NIH"}]},"descriptionModule":{"briefSummary":"This clinical trial studies cancer survivors to identify those who are at increased risk of developing late-occurring complications after undergoing treatment for childhood cancer. A patient's genes may affect the risk of developing complications, such as congestive heart failure, avascular necrosis, stroke, and second cancer, years after undergoing cancer treatment. Genetic studies may help doctors identify survivors of childhood cancer who are more likely to develop late complications.","detailedDescription":"PRIMARY OBJECTIVES:\n\nI. To identify key adverse events developing in patients (cases) with a primary cancer diagnosed at age 21 or younger.\n\nII. To characterize the key adverse events with respect to the nature of the primary malignancy (pathology, stage) and coded details of the therapeutic protocol.\n\nIII. To identify treatment-related and demographic risk factors through a direct comparison of the case-group and controls identified from the remaining patients with the same primary diagnosis.\n\nIV. To compare the frequency of mutations or polymorphisms in specific candidate genes in cases and controls, using constitutional deoxyribonucleic acid (DNA) and ribonucleic acid (RNA) from the cases and controls.\n\nV. To explore the role and nature of gene-environment interaction in the development of key adverse events.\n\nOUTLINE:\n\nDNA and RNA from peripheral blood or saliva sample of patients is analyzed for the presence of polymorphisms in genes associated with an increased risk of late-occurring complications."},"conditionsModule":{"conditions":["Childhood Malignant Neoplasm"]},"designModule":{"studyType":"OBSERVATIONAL","designInfo":{"observationalModel":"CASE_CONTROL","timePerspective":"PROSPECTIVE"},"bioSpec":{"retention":"SAMPLES_WITH_DNA","description":"Peripheral blood and saliva"},"enrollmentInfo":{"count":3885,"type":"ESTIMATED"}},"armsInterventionsModule":{"armGroups":[{"label":"Observational (genetic analysis)","description":"DNA from peripheral blood or saliva sample of patients is analyzed for the presence of polymorphisms in genes associated with an increased risk of late-occurring complications.","interventionNames":["Other: Laboratory Biomarker Analysis","Other: Questionnaire Administration"]}],"interventions":[{"type":"OTHER","name":"Laboratory Biomarker Analysis","description":"Correlative studies","armGroupLabels":["Observational (genetic analysis)"]},{"type":"OTHER","name":"Questionnaire Administration","description":"Ancillary studies","armGroupLabels":["Observational (genetic analysis)"]}]},"outcomesModule":{"primaryOutcomes":[{"measure":"Rate of adverse events (cardiac dysfunction, AVN, ischemic stroke, and SMN using a matched case-control)","description":"Epidemiological, clinical and laboratory variables will be tested for their association with key adverse events. McNemar's test for paired data will be used to compare the unmatched general characteristics of cases and controls.","timeFrame":"Up to 1 year"},{"measure":"Frequency of mutations or polymorphisms in specific candidate genes in cases and controls","description":"Allele frequencies will be estimated by the gene counting method, and the chi-square test will be used to check for departures from Hardy-Weinberg equilibrium.","timeFrame":"Up to 1 year"},{"measure":"Crude disease-exposure","description":"The crude disease-exposure association will be determined by estimating the OR and its 95% confidence interval (CI). This will be done by univariate conditional logistic regression, to account for the matched design. The significance of the OR will be assessed by the Wald test. Backward stepwise regression procedures will be used to develop the final multivariate model and possible interactions will be examined. The fit of the model will be assessed by the logistic regression diagnostics procedure.","timeFrame":"Up to 1 year"}]},"eligibilityModule":{"eligibilityCriteria":"Inclusion Criteria:\n\n* ELIGIBILITY CRITERIA - CASES\n* Diagnosis of primary cancer at age 21 or younger, irrespective of current age\n* No prior history of allogeneic (non-autologous) hematopoietic cell transplant\n* Development of one of the following key adverse events at any time following initiation of cancer therapy:\n\n  * Cardiac dysfunction; please note: case enrollment has been closed due to achievement of target accrual\n  * Ischemic stroke (IS)\n  * Subsequent malignant neoplasm (SMN)\n  * Avascular necrosis (AVN); please note: case enrollment has been closed due to achievement of target accrual\n* Submission of a blood specimen (or in certain cases a saliva specimen) to the Coordinating Center at the University of Alabama at Birmingham as per the requirements; please note: if a patient is currently receiving active cancer treatment, it is preferable to obtain the blood sample at a time when the patient's white blood cell (WBC) is \\> 2,000\n* Written informed consent from the patient and/or the patient's legally authorized guardian\n* In active follow up by a COG institution; active follow up will be defined as date of last visit or contact by a COG institution within the past 24 months; any type of contact, including contact specifically for participation in ALTE03N1, qualifies as active follow-up; please note: treatment on a COG (or legacy group) therapeutic protocol for the primary cancer is NOT required\n* ELIGIBILITY CRITERIA - CONTROLS\n* CONTROL: Diagnosis of primary cancer at age 21 or younger, irrespective of current age\n* CONTROLS: No prior history of allogeneic (non-autologous) hematopoietic cell transplant\n* CONTROLS: No clinical evidence of any of the following key adverse events:\n\n  * Cardiac dysfunction (CD); please note: if a patient is currently receiving active cancer treatment, it is preferable to obtain the blood sample at a time when the patient's WBC is \\> 2,000\n  * Ischemic stroke (IS)\n  * Avascular necrosis (AVN)\n  * Subsequent malignant neoplasm (SMN)\n* CONTROLS: Submission of a blood specimen (or in certain cases a saliva specimen) to the Coordinating Center Laboratory at the University of Alabama at Birmingham as per the requirements\n* CONTROLS: Written informed consent from the patient and/or the patient's legally authorized guardian\n* CONTROLS: In active follow up by a COG institution; active follow up will be defined as date of last visit or contact by a COG institution within the past 24 months; any type of contact, including contact specifically for participation in ALTE03N1, qualifies as active follow-up; please note: treatment on a COG (or legacy group) therapeutic protocol for the primary cancer is NOT required","healthyVolunteers":false,"sex":"ALL","maximumAge":"99 Years","stdAges":["CHILD","ADULT","OLDER_ADULT"],"studyPopulation":"Patients in active follow-up with key adverse events identified by Children's Oncology Group (COG) institutions","samplingMethod":"NON_PROBABILITY_SAMPLE"},"contactsLocationsModule":{"overallOfficials":[{"name":"Smita Bhatia","affiliation":"Children's Oncology Group","role":"PRINCIPAL_INVESTIGATOR"}],"locations":[{"facility":"Children's Hospital of Alabama","status":"RECRUITING","city":"Birmingham","state":"Alabama","zip":"35233","country":"United States","contacts":[{"name":"Site Public Contact","role":"CONTACT","phone":"205-638-9285","email":"oncologyresearch@peds.uab.edu"},{"name":"Smita Bhatia","role":"PRINCIPAL_INVESTIGATOR"}],"geoPoint":{"lat":33.52066,"lon":-86.80249}},{"facility":"University of Alabama at Birmingham Cancer Center","status":"ACTIVE_NOT_RECRUITING","city":"Birmingham","state":"Alabama","zip":"35233","country":"United States","geoPoint":{"lat":33.52066,"lon":-86.80249}},{"facility":"Arkansas Children's Hospital","status":"RECRUITING","city":"Little Rock","state":"Arkansas","zip":"72202-3591","country":"United States","contacts":[{"name":"Site Public Contact","role":"CONTACT","phone":"501-364-7373"},{"name":"David L. Becton","role":"PRINCIPAL_INVESTIGATOR"}],"geoPoint":{"lat":34.74648,"lon":-92.28959}},{"facility":"University of Arkansas for Medical Sciences","status":"ACTIVE_NOT_RECRUITING","city":"Little Rock","state":"Arkansas","zip":"72205","country":"United States","geoPoint":{"lat":34.74648,"lon":-92.28959}},{"facility":"Kaiser Permanente Downey Medical Center","status":"SUSPENDED","city":"Downey","state":"California","zip":"90242","country":"United States","geoPoint":{"lat":33.94001,"lon":-118.13257}},{"facility":"City of Hope Comprehensive Cancer Center","status":"RECRUITING","city":"Duarte","state":"California","zip":"91010","country":"United States","contacts":[{"name":"Site Public Contact","role":"CONTACT","phone":"800-826-4673","email":"becomingapatient@coh.org"},{"name":"Saro H. Armenian","role":"PRINCIPAL_INVESTIGATOR"}],"geoPoint":{"lat":34.13945,"lon":-117.97729}},{"facility":"Children's Hospital Los Angeles","status":"RECRUITING","city":"Los Angeles","state":"California","zip":"90027","country":"United States","contacts":[{"name":"Site Public Contact","role":"CONTACT","phone":"323-361-4110"},{"name":"Leo Mascarenhas","role":"PRINCIPAL_INVESTIGATOR"}],"geoPoint":{"lat":34.05223,"lon":-118.24368}},{"facility":"Cedars Sinai Medical Center","status":"RECRUITING","city":"Los Angeles","state":"California","zip":"90048","country":"United States","contacts":[{"name":"Site Public Contact","role":"CONTACT","phone":"310-423-8965"},{"name":"Fataneh (Fae) Majlessipour","role":"PRINCIPAL_INVESTIGATOR"}],"geoPoint":{"lat":34.05223,"lon":-118.24368}},{"facility":"Mattel Children's Hospital UCLA","status":"RECRUITING","city":"Los Angeles","state":"California","zip":"90095","country":"United States","contacts":[{"name":"Site Public Contact","role":"CONTACT","phone":"310-825-6708"},{"name":"William A. May","role":"PRINCIPAL_INVESTIGATOR"}],"geoPoint":{"lat":34.05223,"lon":-118.24368}},{"facility":"Valley Children's Hospital","status":"RECRUITING","city":"Madera","state":"California","zip":"93636","country":"United States","contacts":[{"name":"Site Public Contact","role":"CONTACT","phone":"559-353-3000","email":"Research@valleychildrens.org"},{"name":"Vonda L. Crouse","role":"PRINCIPAL_INVESTIGATOR"}],"geoPoint":{"lat":36.96134,"lon":-120.06072}},{"facility":"Children's Hospital and Research Center at Oakland","status":"RECRUITING","city":"Oakland","state":"California","zip":"94609-1809","country":"United States","contacts":[{"name":"Site Public Contact","role":"CONTACT","phone":"510-428-3324","email":"cgolden@mail.cho.org"},{"name":"Carla B. Golden","role":"PRINCIPAL_INVESTIGATOR"}],"geoPoint":{"lat":37.80437,"lon":-122.2708}},{"facility":"Kaiser Permanente-Oakland","status":"RECRUITING","city":"Oakland","state":"California","zip":"94611","country":"United States","contacts":[{"name":"Site Public Contact","role":"CONTACT","phone":"877-642-4691","email":"Kpoct@kp.org"},{"name":"Laura A. Campbell","role":"PRINCIPAL_INVESTIGATOR"}],"geoPoint":{"lat":37.80437,"lon":-122.2708}},{"facility":"Lucile Packard Children's Hospital Stanford University","status":"RECRUITING","city":"Palo Alto","state":"California","zip":"94304","country":"United States","contacts":[{"name":"Site Public Contact","role":"CONTACT","phone":"800-694-0012","email":"ccto-office@stanford.edu"},{"name":"Jay Michael S. Balagtas","role":"PRINCIPAL_INVESTIGATOR"}],"geoPoint":{"lat":37.44188,"lon":-122.14302}},{"facility":"Rady Children's Hospital - San Diego","status":"RECRUITING","city":"San Diego","state":"California","zip":"92123","country":"United States","contacts":[{"name":"Site Public Contact","role":"CONTACT","phone":"858-966-5934"},{"name":"William D. Roberts","role":"PRINCIPAL_INVESTIGATOR"}],"geoPoint":{"lat":32.71533,"lon":-117.15726}},{"facility":"Children's Hospital Colorado","status":"SUSPENDED","city":"Aurora","state":"Colorado","zip":"80045","country":"United States","geoPoint":{"lat":39.72943,"lon":-104.83192}},{"facility":"Connecticut Children's Medical Center","status":"RECRUITING","city":"Hartford","state":"Connecticut","zip":"06106","country":"United States","contacts":[{"name":"Site Public Contact","role":"CONTACT","phone":"860-545-9981"},{"name":"Michael S. Isakoff","role":"PRINCIPAL_INVESTIGATOR"}],"geoPoint":{"lat":41.76371,"lon":-72.68509}},{"facility":"Yale University","status":"RECRUITING","city":"New Haven","state":"Connecticut","zip":"06520","country":"United States","contacts":[{"name":"Site Public Contact","role":"CONTACT","phone":"203-785-5702","email":"canceranswers@yale.edu"},{"name":"Nina S. Kadan-Lottick","role":"PRINCIPAL_INVESTIGATOR"}],"geoPoint":{"lat":41.30815,"lon":-72.92816}},{"facility":"Alfred I duPont Hospital for Children","status":"RECRUITING","city":"Wilmington","state":"Delaware","zip":"19803","country":"United States","contacts":[{"name":"Site Public Contact","role":"CONTACT","phone":"302-651-6884","email":"dperry@nemours.org"},{"name":"Ramamoorthy Nagasubramanian","role":"PRINCIPAL_INVESTIGATOR"}],"geoPoint":{"lat":39.74595,"lon":-75.54659}},{"facility":"Children's National Medical Center","status":"RECRUITING","city":"Washington","state":"District of Columbia","zip":"20010","country":"United States","contacts":[{"name":"Site Public Contact","role":"CONTACT","phone":"202-884-2549"},{"name":"Jeffrey S. Dome","role":"PRINCIPAL_INVESTIGATOR"}],"geoPoint":{"lat":38.89511,"lon":-77.03637}},{"facility":"Lee Memorial Health System","status":"ACTIVE_NOT_RECRUITING","city":"Fort Myers","state":"Florida","zip":"33901","country":"United States","geoPoint":{"lat":26.62168,"lon":-81.84059}},{"facility":"Golisano Children's Hospital of Southwest Florida","status":"RECRUITING","city":"Fort Myers","state":"Florida","zip":"33908","country":"United States","contacts":[{"name":"Site Public Contact","role":"CONTACT","phone":"239-343-5333","email":"molly.arnstrom@leehealth.org"},{"name":"Emad K. Salman","role":"PRINCIPAL_INVESTIGATOR"}],"geoPoint":{"lat":26.62168,"lon":-81.84059}},{"facility":"University of Florida Health Science Center - Gainesville","status":"ACTIVE_NOT_RECRUITING","city":"Gainesville","state":"Florida","zip":"32610","country":"United States","geoPoint":{"lat":29.65163,"lon":-82.32483}},{"facility":"Nemours Children's Clinic-Jacksonville","status":"RECRUITING","city":"Jacksonville","state":"Florida","zip":"32207","country":"United States","contacts":[{"name":"Site Public Contact","role":"CONTACT","phone":"904-697-3529"},{"name":"Ramamoorthy Nagasubramanian","role":"PRINCIPAL_INVESTIGATOR"}],"geoPoint":{"lat":30.33218,"lon":-81.65565}},{"facility":"University of Miami Miller School of Medicine-Sylvester Cancer Center","status":"ACTIVE_NOT_RECRUITING","city":"Miami","state":"Florida","zip":"33136","country":"United States","geoPoint":{"lat":25.77427,"lon":-80.19366}},{"facility":"Nicklaus Children's Hospital","status":"SUSPENDED","city":"Miami","state":"Florida","zip":"33155","country":"United States","geoPoint":{"lat":25.77427,"lon":-80.19366}},{"facility":"Miami Cancer Institute","status":"RECRUITING","city":"Miami","state":"Florida","zip":"33176","country":"United States","contacts":[{"name":"Site Public Contact","role":"CONTACT","phone":"786-596-2000"},{"name":"Doured Daghistani","role":"PRINCIPAL_INVESTIGATOR"}],"geoPoint":{"lat":25.77427,"lon":-80.19366}},{"facility":"Nemours Children's Clinic - Orlando","status":"ACTIVE_NOT_RECRUITING","city":"Orlando","state":"Florida","zip":"32806","country":"United States","geoPoint":{"lat":28.53834,"lon":-81.37924}},{"facility":"Nemours Children's Hospital","status":"RECRUITING","city":"Orlando","state":"Florida","zip":"32827","country":"United States","contacts":[{"name":"Site Public Contact","role":"CONTACT","phone":"407-650-7150"},{"name":"Ramamoorthy Nagasubramanian","role":"PRINCIPAL_INVESTIGATOR"}],"geoPoint":{"lat":28.53834,"lon":-81.37924}},{"facility":"Nemours Children's Clinic - Pensacola","status":"ACTIVE_NOT_RECRUITING","city":"Pensacola","state":"Florida","zip":"32504","country":"United States","geoPoint":{"lat":30.42131,"lon":-87.21691}},{"facility":"Johns Hopkins All Children's Hospital","status":"SUSPENDED","city":"Saint Petersburg","state":"Florida","zip":"33701","country":"United States","geoPoint":{"lat":27.77086,"lon":-82.67927}},{"facility":"Saint Joseph's Hospital/Children's Hospital-Tampa","status":"RECRUITING","city":"Tampa","state":"Florida","zip":"33607","country":"United States","contacts":[{"name":"Site Public Contact","role":"CONTACT","phone":"813-356-7168","email":"Katelynn.Colgain@baycare.org"},{"name":"Dana A. Obzut","role":"PRINCIPAL_INVESTIGATOR"}],"geoPoint":{"lat":27.94752,"lon":-82.45843}},{"facility":"Children's Healthcare of Atlanta - Egleston","status":"RECRUITING","city":"Atlanta","state":"Georgia","zip":"30322","country":"United States","contacts":[{"name":"Site Public Contact","role":"CONTACT","phone":"404-785-2025","email":"Leann.Schilling@choa.org"},{"name":"Lillian R. Meacham","role":"PRINCIPAL_INVESTIGATOR"}],"geoPoint":{"lat":33.749,"lon":-84.38798}},{"facility":"Augusta University Medical Center","status":"RECRUITING","city":"Augusta","state":"Georgia","zip":"30912","country":"United States","contacts":[{"name":"Site Public Contact","role":"CONTACT","phone":"706-721-2388","email":"ga_cares@augusta.edu"},{"name":"Colleen H. McDonough","role":"PRINCIPAL_INVESTIGATOR"}],"geoPoint":{"lat":33.47097,"lon":-81.97484}},{"facility":"University of Hawaii Cancer Center","status":"ACTIVE_NOT_RECRUITING","city":"Honolulu","state":"Hawaii","zip":"96813","country":"United States","geoPoint":{"lat":21.30694,"lon":-157.85833}},{"facility":"Kapiolani Medical Center for Women and Children","status":"RECRUITING","city":"Honolulu","state":"Hawaii","zip":"96826","country":"United States","contacts":[{"name":"Site Public Contact","role":"CONTACT","phone":"808-983-6090"},{"name":"Wade T. Kyono","role":"PRINCIPAL_INVESTIGATOR"}],"geoPoint":{"lat":21.30694,"lon":-157.85833}},{"facility":"Saint Luke's Mountain States Tumor Institute","status":"RECRUITING","city":"Boise","state":"Idaho","zip":"83712","country":"United States","contacts":[{"name":"Site Public Contact","role":"CONTACT","phone":"208-381-2774","email":"eslinget@slhs.org"},{"name":"Eugenia Chang","role":"PRINCIPAL_INVESTIGATOR"}],"geoPoint":{"lat":43.6135,"lon":-116.20345}},{"facility":"Lurie Children's Hospital-Chicago","status":"SUSPENDED","city":"Chicago","state":"Illinois","zip":"60611","country":"United States","geoPoint":{"lat":41.85003,"lon":-87.65005}},{"facility":"University of Illinois","status":"RECRUITING","city":"Chicago","state":"Illinois","zip":"60612","country":"United States","contacts":[{"name":"Site Public Contact","role":"CONTACT","phone":"312-355-3046"},{"name":"Mary L. Schmidt","role":"PRINCIPAL_INVESTIGATOR"}],"geoPoint":{"lat":41.85003,"lon":-87.65005}},{"facility":"University of Chicago Comprehensive Cancer Center","status":"SUSPENDED","city":"Chicago","state":"Illinois","zip":"60637","country":"United States","geoPoint":{"lat":41.85003,"lon":-87.65005}},{"facility":"Advocate Children's Hospital-Oak Lawn","status":"SUSPENDED","city":"Oak Lawn","state":"Illinois","zip":"60453","country":"United States","geoPoint":{"lat":41.71087,"lon":-87.75811}},{"facility":"Advocate Children's Hospital-Park Ridge","status":"RECRUITING","city":"Park Ridge","state":"Illinois","zip":"60068","country":"United States","contacts":[{"name":"Site Public Contact","role":"CONTACT","email":"helpdesk@childrensoncologygroup.org"},{"name":"Rebecca E. McFall","role":"PRINCIPAL_INVESTIGATOR"}],"geoPoint":{"lat":42.01114,"lon":-87.84062}},{"facility":"Advocate Lutheran General Hospital","status":"ACTIVE_NOT_RECRUITING","city":"Park Ridge","state":"Illinois","zip":"60068","country":"United States","geoPoint":{"lat":42.01114,"lon":-87.84062}},{"facility":"Saint Jude Midwest Affiliate","status":"RECRUITING","city":"Peoria","state":"Illinois","zip":"61637","country":"United States","contacts":[{"name":"Site Public Contact","role":"CONTACT","phone":"888-226-4343"},{"name":"Jaime M. Libes","role":"PRINCIPAL_INVESTIGATOR"}],"geoPoint":{"lat":40.69365,"lon":-89.58899}},{"facility":"Riley Hospital for Children","status":"RECRUITING","city":"Indianapolis","state":"Indiana","zip":"46202","country":"United States","contacts":[{"name":"Site Public Contact","role":"CONTACT","phone":"800-248-1199"},{"name":"Sandeep Batra","role":"PRINCIPAL_INVESTIGATOR"}],"geoPoint":{"lat":39.76838,"lon":-86.15804}},{"facility":"Saint Vincent Hospital and Health Care Center","status":"RECRUITING","city":"Indianapolis","state":"Indiana","zip":"46260","country":"United States","contacts":[{"name":"Site Public Contact","role":"CONTACT","phone":"317-338-2194","email":"research@stvincent.org"},{"name":"Bassem I. Razzouk","role":"PRINCIPAL_INVESTIGATOR"}],"geoPoint":{"lat":39.76838,"lon":-86.15804}},{"facility":"University of Iowa/Holden Comprehensive Cancer Center","status":"RECRUITING","city":"Iowa City","state":"Iowa","zip":"52242","country":"United States","contacts":[{"name":"Site Public Contact","role":"CONTACT","phone":"800-237-1225"},{"name":"Mariko Sato","role":"PRINCIPAL_INVESTIGATOR"}],"geoPoint":{"lat":41.66113,"lon":-91.53017}},{"facility":"University of Kansas Cancer Center","status":"ACTIVE_NOT_RECRUITING","city":"Kansas City","state":"Kansas","zip":"66160","country":"United States","geoPoint":{"lat":39.11417,"lon":-94.62746}},{"facility":"University of Kentucky/Markey Cancer Center","status":"RECRUITING","city":"Lexington","state":"Kentucky","zip":"40536","country":"United States","contacts":[{"name":"Site Public Contact","role":"CONTACT","phone":"859-257-3379"},{"name":"Vlad C. Radulescu","role":"PRINCIPAL_INVESTIGATOR"}],"geoPoint":{"lat":37.98869,"lon":-84.47772}},{"facility":"Norton Children's Hospital","status":"RECRUITING","city":"Louisville","state":"Kentucky","zip":"40202","country":"United States","contacts":[{"name":"Site Public Contact","role":"CONTACT","phone":"502-629-5500","email":"CancerResource@nortonhealthcare.org"},{"name":"Ashok B. Raj","role":"PRINCIPAL_INVESTIGATOR"}],"geoPoint":{"lat":38.25424,"lon":-85.75941}},{"facility":"Tulane University Health Sciences Center","status":"SUSPENDED","city":"New Orleans","state":"Louisiana","zip":"70112","country":"United States","geoPoint":{"lat":29.95465,"lon":-90.07507}},{"facility":"Children's Hospital New Orleans","status":"RECRUITING","city":"New Orleans","state":"Louisiana","zip":"70118","country":"United States","contacts":[{"name":"Site Public Contact","role":"CONTACT","email":"CHResearch@lcmchealth.org"},{"name":"Lolie C. Yu","role":"PRINCIPAL_INVESTIGATOR"}],"geoPoint":{"lat":29.95465,"lon":-90.07507}},{"facility":"Eastern Maine Medical Center","status":"RECRUITING","city":"Bangor","state":"Maine","zip":"04401","country":"United States","contacts":[{"name":"Site Public Contact","role":"CONTACT","phone":"207-973-4274"},{"name":"Nadine P. SantaCruz","role":"PRINCIPAL_INVESTIGATOR"}],"geoPoint":{"lat":44.80118,"lon":-68.77781}},{"facility":"Dana-Farber Cancer Institute","status":"ACTIVE_NOT_RECRUITING","city":"Boston","state":"Massachusetts","zip":"02215","country":"United States","geoPoint":{"lat":42.35843,"lon":-71.05977}},{"facility":"C S Mott Children's Hospital","status":"RECRUITING","city":"Ann Arbor","state":"Michigan","zip":"48109","country":"United States","contacts":[{"name":"Site Public Contact","role":"CONTACT","phone":"800-865-1125"},{"name":"Rama Jasty","role":"PRINCIPAL_INVESTIGATOR"}],"geoPoint":{"lat":42.27756,"lon":-83.74088}},{"facility":"Wayne State University/Karmanos Cancer Institute","status":"ACTIVE_NOT_RECRUITING","city":"Detroit","state":"Michigan","zip":"48201","country":"United States","geoPoint":{"lat":42.33143,"lon":-83.04575}},{"facility":"Ascension Saint John Hospital","status":"RECRUITING","city":"Detroit","state":"Michigan","zip":"48236","country":"United States","contacts":[{"name":"Site Public Contact","role":"CONTACT","phone":"734-712-3671","email":"stephanie.couch@stjoeshealth.org"},{"name":"Adonis N. Lorenzana","role":"PRINCIPAL_INVESTIGATOR"}],"geoPoint":{"lat":42.33143,"lon":-83.04575}},{"facility":"Michigan State University Clinical Center","status":"SUSPENDED","city":"East Lansing","state":"Michigan","zip":"48824-7016","country":"United States","geoPoint":{"lat":42.73698,"lon":-84.48387}},{"facility":"Hurley Medical Center","status":"ACTIVE_NOT_RECRUITING","city":"Flint","state":"Michigan","zip":"48503","country":"United States","geoPoint":{"lat":43.01253,"lon":-83.68746}},{"facility":"Helen DeVos Children's Hospital at Spectrum Health","status":"RECRUITING","city":"Grand Rapids","state":"Michigan","zip":"49503","country":"United States","contacts":[{"name":"Site Public Contact","role":"CONTACT","phone":"616-391-1230","email":"crcwm-regulatory@crcwm.org"},{"name":"Kathleen J. Yost","role":"PRINCIPAL_INVESTIGATOR"}],"geoPoint":{"lat":42.96336,"lon":-85.66809}},{"facility":"Bronson Methodist Hospital","status":"RECRUITING","city":"Kalamazoo","state":"Michigan","zip":"49007","country":"United States","contacts":[{"name":"Site Public Contact","role":"CONTACT","phone":"616-391-1230","email":"crcwm-regulatory@crcwm.org"},{"name":"Kathleen J. Yost","role":"PRINCIPAL_INVESTIGATOR"}],"geoPoint":{"lat":42.29171,"lon":-85.58723}},{"facility":"Kalamazoo Center for Medical Studies","status":"ACTIVE_NOT_RECRUITING","city":"Kalamazoo","state":"Michigan","zip":"49008","country":"United States","geoPoint":{"lat":42.29171,"lon":-85.58723}},{"facility":"Children's Hospitals and Clinics of Minnesota - Minneapolis","status":"RECRUITING","city":"Minneapolis","state":"Minnesota","zip":"55404","country":"United States","contacts":[{"name":"Site Public Contact","role":"CONTACT","phone":"612-813-5193"},{"name":"Michael K. Richards","role":"PRINCIPAL_INVESTIGATOR"}],"geoPoint":{"lat":44.97997,"lon":-93.26384}},{"facility":"University of Minnesota/Masonic Cancer Center","status":"RECRUITING","city":"Minneapolis","state":"Minnesota","zip":"55455","country":"United States","contacts":[{"name":"Site Public Contact","role":"CONTACT","phone":"612-624-2620"},{"name":"Joseph P. Neglia","role":"PRINCIPAL_INVESTIGATOR"}],"geoPoint":{"lat":44.97997,"lon":-93.26384}},{"facility":"Mayo Clinic","status":"RECRUITING","city":"Rochester","state":"Minnesota","zip":"55905","country":"United States","contacts":[{"name":"Site Public Contact","role":"CONTACT","phone":"855-776-0015"},{"name":"Carola A. Arndt","role":"PRINCIPAL_INVESTIGATOR"}],"geoPoint":{"lat":44.02163,"lon":-92.4699}},{"facility":"University of Mississippi Medical Center","status":"RECRUITING","city":"Jackson","state":"Mississippi","zip":"39216","country":"United States","contacts":[{"name":"Site Public Contact","role":"CONTACT","phone":"601-815-6700"},{"name":"Gail C. Megason","role":"PRINCIPAL_INVESTIGATOR"}],"geoPoint":{"lat":32.29876,"lon":-90.18481}},{"facility":"Columbia Regional","status":"SUSPENDED","city":"Columbia","state":"Missouri","zip":"65201","country":"United States","geoPoint":{"lat":38.95171,"lon":-92.33407}},{"facility":"Children's Mercy Hospitals and Clinics","status":"RECRUITING","city":"Kansas City","state":"Missouri","zip":"64108","country":"United States","contacts":[{"name":"Site Public Contact","role":"CONTACT","phone":"816-302-6808","email":"rryan@cmh.edu"},{"name":"Keith J. August","role":"PRINCIPAL_INVESTIGATOR"}],"geoPoint":{"lat":39.09973,"lon":-94.57857}},{"facility":"Washington University School of Medicine","status":"RECRUITING","city":"Saint Louis","state":"Missouri","zip":"63110","country":"United States","contacts":[{"name":"Site Public Contact","role":"CONTACT","phone":"800-600-3606","email":"info@siteman.wustl.edu"},{"name":"Robert J. Hayashi","role":"PRINCIPAL_INVESTIGATOR"}],"geoPoint":{"lat":38.62727,"lon":-90.19789}},{"facility":"University Medical Center of Southern Nevada","status":"RECRUITING","city":"Las Vegas","state":"Nevada","zip":"89102","country":"United States","contacts":[{"name":"Site Public Contact","role":"CONTACT","phone":"702-384-0013","email":"research@sncrf.org"},{"name":"Alan K. Ikeda","role":"PRINCIPAL_INVESTIGATOR"}],"geoPoint":{"lat":36.17497,"lon":-115.13722}},{"facility":"Sunrise Hospital and Medical Center","status":"RECRUITING","city":"Las Vegas","state":"Nevada","zip":"89109","country":"United States","contacts":[{"name":"Site Public Contact","role":"CONTACT","phone":"702-384-0013","email":"research@sncrf.org"},{"name":"Alan K. Ikeda","role":"PRINCIPAL_INVESTIGATOR"}],"geoPoint":{"lat":36.17497,"lon":-115.13722}},{"facility":"Alliance for Childhood Diseases/Cure 4 the Kids Foundation","status":"RECRUITING","city":"Las Vegas","state":"Nevada","zip":"89135","country":"United States","contacts":[{"name":"Site Public Contact","role":"CONTACT","phone":"702-384-0013","email":"research@sncrf.org"},{"name":"Alan K. Ikeda","role":"PRINCIPAL_INVESTIGATOR"}],"geoPoint":{"lat":36.17497,"lon":-115.13722}},{"facility":"Summerlin Hospital Medical Center","status":"RECRUITING","city":"Las Vegas","state":"Nevada","zip":"89144","country":"United States","contacts":[{"name":"Site Public Contact","role":"CONTACT","phone":"702-384-0013","email":"research@sncrf.org"},{"name":"Alan K. Ikeda","role":"PRINCIPAL_INVESTIGATOR"}],"geoPoint":{"lat":36.17497,"lon":-115.13722}},{"facility":"Hackensack University Medical Center","status":"RECRUITING","city":"Hackensack","state":"New Jersey","zip":"07601","country":"United States","contacts":[{"name":"Site Public Contact","role":"CONTACT","phone":"201-996-2879"},{"name":"Michael B. Harris","role":"PRINCIPAL_INVESTIGATOR"}],"geoPoint":{"lat":40.88593,"lon":-74.04347}},{"facility":"Saint Barnabas Medical Center","status":"ACTIVE_NOT_RECRUITING","city":"Livingston","state":"New Jersey","zip":"07039","country":"United States","geoPoint":{"lat":40.79593,"lon":-74.31487}},{"facility":"Saint Peter's University Hospital","status":"RECRUITING","city":"New Brunswick","state":"New Jersey","zip":"08901","country":"United States","contacts":[{"name":"Site Public Contact","role":"CONTACT","phone":"732-745-8600","phoneExt":"6163","email":"kcovert@saintpetersuh.com"},{"name":"Nibal A. Zaghloul","role":"PRINCIPAL_INVESTIGATOR"}],"geoPoint":{"lat":40.48622,"lon":-74.45182}},{"facility":"Newark Beth Israel Medical Center","status":"SUSPENDED","city":"Newark","state":"New Jersey","zip":"07112","country":"United States","geoPoint":{"lat":40.73566,"lon":-74.17237}},{"facility":"Saint Joseph's Regional Medical Center","status":"RECRUITING","city":"Paterson","state":"New Jersey","zip":"07503","country":"United States","contacts":[{"name":"Site Public Contact","role":"CONTACT","phone":"973-754-2207","email":"HallL@sjhmc.org"},{"name":"Alissa Kahn","role":"PRINCIPAL_INVESTIGATOR"}],"geoPoint":{"lat":40.91677,"lon":-74.17181}},{"facility":"University of New Mexico Cancer Center","status":"SUSPENDED","city":"Albuquerque","state":"New Mexico","zip":"87102","country":"United States","geoPoint":{"lat":35.08449,"lon":-106.65114}},{"facility":"Brooklyn Hospital Center","status":"ACTIVE_NOT_RECRUITING","city":"Brooklyn","state":"New York","zip":"11201","country":"United States","geoPoint":{"lat":40.6501,"lon":-73.94958}},{"facility":"Maimonides Medical Center","status":"ACTIVE_NOT_RECRUITING","city":"Brooklyn","state":"New York","zip":"11219","country":"United States","geoPoint":{"lat":40.6501,"lon":-73.94958}},{"facility":"Roswell Park Cancer Institute","status":"RECRUITING","city":"Buffalo","state":"New York","zip":"14263","country":"United States","contacts":[{"name":"Site Public Contact","role":"CONTACT","phone":"800-767-9355","email":"askroswell@roswellpark.org"},{"name":"Denise A. Rokitka","role":"PRINCIPAL_INVESTIGATOR"}],"geoPoint":{"lat":42.88645,"lon":-78.87837}},{"facility":"NYU Winthrop Hospital","status":"RECRUITING","city":"Mineola","state":"New York","zip":"11501","country":"United States","contacts":[{"name":"Site Public Contact","role":"CONTACT","phone":"516-663-3115"},{"name":"Mark E. Weinblatt","role":"PRINCIPAL_INVESTIGATOR"}],"geoPoint":{"lat":40.74927,"lon":-73.64068}},{"facility":"NYP/Columbia University Medical Center/Herbert Irving Comprehensive Cancer Center","status":"SUSPENDED","city":"New York","state":"New York","zip":"10032","country":"United States","geoPoint":{"lat":40.71427,"lon":-74.00597}},{"facility":"Memorial Sloan Kettering Cancer Center","status":"RECRUITING","city":"New York","state":"New York","zip":"10065","country":"United States","contacts":[{"name":"Site Public Contact","role":"CONTACT","phone":"212-639-7592"},{"name":"Danielle N. Friedman","role":"PRINCIPAL_INVESTIGATOR"}],"geoPoint":{"lat":40.71427,"lon":-74.00597}},{"facility":"Stony Brook University Medical Center","status":"SUSPENDED","city":"Stony Brook","state":"New York","zip":"11794","country":"United States","geoPoint":{"lat":40.92565,"lon":-73.14094}},{"facility":"State University of New York Upstate Medical University","status":"RECRUITING","city":"Syracuse","state":"New York","zip":"13210","country":"United States","contacts":[{"name":"Site Public Contact","role":"CONTACT","phone":"315-464-5476"},{"name":"Philip M. Monteleone","role":"PRINCIPAL_INVESTIGATOR"}],"geoPoint":{"lat":43.04812,"lon":-76.14742}},{"facility":"New York Medical College","status":"SUSPENDED","city":"Valhalla","state":"New York","zip":"10595","country":"United States","geoPoint":{"lat":41.07482,"lon":-73.77513}},{"facility":"UNC Lineberger Comprehensive Cancer Center","status":"SUSPENDED","city":"Chapel Hill","state":"North Carolina","zip":"27599","country":"United States","geoPoint":{"lat":35.9132,"lon":-79.05584}},{"facility":"Duke University Medical Center","status":"RECRUITING","city":"Durham","state":"North Carolina","zip":"27710","country":"United States","contacts":[{"name":"Site Public Contact","role":"CONTACT","phone":"888-275-3853"},{"name":"Lars M. Wagner","role":"PRINCIPAL_INVESTIGATOR"}],"geoPoint":{"lat":35.99403,"lon":-78.89862}},{"facility":"Wake Forest University Health Sciences","status":"RECRUITING","city":"Winston-Salem","state":"North Carolina","zip":"27157","country":"United States","contacts":[{"name":"Site Public Contact","role":"CONTACT","phone":"336-713-6771"},{"name":"Thomas W. McLean","role":"PRINCIPAL_INVESTIGATOR"}],"geoPoint":{"lat":36.09986,"lon":-80.24422}},{"facility":"Sanford Broadway Medical Center","status":"RECRUITING","city":"Fargo","state":"North Dakota","zip":"58122","country":"United States","contacts":[{"name":"Site Public Contact","role":"CONTACT","phone":"701-323-5760","email":"OncologyClinicalTrialsFargo@sanfordhealth.org"},{"name":"Samuel O. Anim","role":"PRINCIPAL_INVESTIGATOR"}],"geoPoint":{"lat":46.87719,"lon":-96.7898}},{"facility":"Children's Hospital Medical Center of Akron","status":"SUSPENDED","city":"Akron","state":"Ohio","zip":"44308","country":"United States","geoPoint":{"lat":41.08144,"lon":-81.51901}},{"facility":"Cincinnati Children's Hospital Medical Center","status":"RECRUITING","city":"Cincinnati","state":"Ohio","zip":"45229","country":"United States","contacts":[{"name":"Site Public Contact","role":"CONTACT","phone":"513-636-2799","email":"cancer@cchmc.org"},{"name":"Rajaram Nagarajan","role":"PRINCIPAL_INVESTIGATOR"}],"geoPoint":{"lat":39.12713,"lon":-84.51435}},{"facility":"Rainbow Babies and Childrens Hospital","status":"SUSPENDED","city":"Cleveland","state":"Ohio","zip":"44106","country":"United States","geoPoint":{"lat":41.4995,"lon":-81.69541}},{"facility":"Nationwide Children's Hospital","status":"RECRUITING","city":"Columbus","state":"Ohio","zip":"43205","country":"United States","contacts":[{"name":"Site Public Contact","role":"CONTACT","phone":"614-072-2657","email":"amy.yekisa@nationwidechildrens.org"},{"name":"Mark A. Ranalli","role":"PRINCIPAL_INVESTIGATOR"}],"geoPoint":{"lat":39.96118,"lon":-82.99879}},{"facility":"Dayton Children's Hospital","status":"RECRUITING","city":"Dayton","state":"Ohio","zip":"45404","country":"United States","contacts":[{"name":"Site Public Contact","role":"CONTACT","phone":"800-228-4055"},{"name":"Ayman A. El-Sheikh","role":"PRINCIPAL_INVESTIGATOR"}],"geoPoint":{"lat":39.75895,"lon":-84.19161}},{"facility":"University of Oklahoma Health Sciences Center","status":"RECRUITING","city":"Oklahoma City","state":"Oklahoma","zip":"73104","country":"United States","contacts":[{"name":"Site Public Contact","role":"CONTACT","phone":"405-271-8777","email":"ou-clinical-trials@ouhsc.edu"},{"name":"Rene Y. McNall-Knapp","role":"PRINCIPAL_INVESTIGATOR"}],"geoPoint":{"lat":35.46756,"lon":-97.51643}},{"facility":"Legacy Emanuel Children's Hospital","status":"RECRUITING","city":"Portland","state":"Oregon","zip":"97227","country":"United States","contacts":[{"name":"Site Public Contact","role":"CONTACT","phone":"503-413-2560"},{"name":"Janice F. Olson","role":"PRINCIPAL_INVESTIGATOR"}],"geoPoint":{"lat":45.52345,"lon":-122.67621}},{"facility":"Legacy Emanuel Hospital and Health Center","status":"ACTIVE_NOT_RECRUITING","city":"Portland","state":"Oregon","zip":"97227","country":"United States","geoPoint":{"lat":45.52345,"lon":-122.67621}},{"facility":"Lehigh Valley Hospital-Cedar Crest","status":"RECRUITING","city":"Allentown","state":"Pennsylvania","zip":"18103","country":"United States","contacts":[{"name":"Site Public Contact","role":"CONTACT","phone":"734-712-3671","email":"stephanie.couch@stjoeshealth.org"},{"name":"Felipe S. Bautista-Otanez","role":"PRINCIPAL_INVESTIGATOR"}],"geoPoint":{"lat":40.60843,"lon":-75.49018}},{"facility":"Lehigh Valley Hospital - Muhlenberg","status":"ACTIVE_NOT_RECRUITING","city":"Bethlehem","state":"Pennsylvania","zip":"18017","country":"United States","geoPoint":{"lat":40.62593,"lon":-75.37046}},{"facility":"Children's Hospital of Philadelphia","status":"SUSPENDED","city":"Philadelphia","state":"Pennsylvania","zip":"19104","country":"United States","geoPoint":{"lat":39.95233,"lon":-75.16379}},{"facility":"Children's Hospital of Pittsburgh of UPMC","status":"RECRUITING","city":"Pittsburgh","state":"Pennsylvania","zip":"15224","country":"United States","contacts":[{"name":"Site Public Contact","role":"CONTACT","phone":"412-692-8570","email":"jean.tersak@chp.edu"},{"name":"Arthur K. Ritchey","role":"PRINCIPAL_INVESTIGATOR"}],"geoPoint":{"lat":40.44062,"lon":-79.99589}},{"facility":"Prisma Health Richland Hospital","status":"RECRUITING","city":"Columbia","state":"South Carolina","zip":"29203","country":"United States","contacts":[{"name":"Site Public Contact","role":"CONTACT","phone":"803-434-3533"},{"name":"Stuart L. Cramer","role":"PRINCIPAL_INVESTIGATOR"}],"geoPoint":{"lat":34.00071,"lon":-81.03481}},{"facility":"BI-LO Charities Children's Cancer Center","status":"RECRUITING","city":"Greenville","state":"South Carolina","zip":"29605","country":"United States","contacts":[{"name":"Site Public Contact","role":"CONTACT","phone":"864-522-2066","email":"kim.williams3@prismahealth.org"},{"name":"Nichole L. Bryant","role":"PRINCIPAL_INVESTIGATOR"}],"geoPoint":{"lat":34.85262,"lon":-82.39401}},{"facility":"Greenville Cancer Treatment Center","status":"ACTIVE_NOT_RECRUITING","city":"Greenville","state":"South Carolina","zip":"29605","country":"United States","geoPoint":{"lat":34.85262,"lon":-82.39401}},{"facility":"Sanford USD Medical Center - Sioux Falls","status":"SUSPENDED","city":"Sioux Falls","state":"South Dakota","zip":"57117-5134","country":"United States","geoPoint":{"lat":43.54997,"lon":-96.70033}},{"facility":"East Tennessee State University","status":"ACTIVE_NOT_RECRUITING","city":"Johnson City","state":"Tennessee","zip":"37614-0054","country":"United States","geoPoint":{"lat":36.31344,"lon":-82.35347}},{"facility":"East Tennessee Childrens Hospital","status":"SUSPENDED","city":"Knoxville","state":"Tennessee","zip":"37916","country":"United States","geoPoint":{"lat":35.96064,"lon":-83.92074}},{"facility":"St. Jude Children's Research Hospital","status":"RECRUITING","city":"Memphis","state":"Tennessee","zip":"38105","country":"United States","contacts":[{"name":"Site Public Contact","role":"CONTACT","phone":"866-278-5833","email":"info@stjude.org"},{"name":"Melissa M. Hudson","role":"PRINCIPAL_INVESTIGATOR"}],"geoPoint":{"lat":35.14953,"lon":-90.04898}},{"facility":"Vanderbilt University/Ingram Cancer Center","status":"RECRUITING","city":"Nashville","state":"Tennessee","zip":"37232","country":"United States","contacts":[{"name":"Site Public Contact","role":"CONTACT","phone":"800-811-8480"},{"name":"Debra L. Friedman","role":"PRINCIPAL_INVESTIGATOR"}],"geoPoint":{"lat":36.16589,"lon":-86.78444}},{"facility":"Texas Tech University Health Sciences Center-Amarillo","status":"ACTIVE_NOT_RECRUITING","city":"Amarillo","state":"Texas","zip":"79106","country":"United States","geoPoint":{"lat":35.222,"lon":-101.8313}},{"facility":"Driscoll Children's Hospital","status":"RECRUITING","city":"Corpus Christi","state":"Texas","zip":"78411","country":"United States","contacts":[{"name":"Site Public Contact","role":"CONTACT","phone":"361-694-5311","email":"Crystal.DeLosSantos@dchstx.org"},{"name":"Nkechi I. Mba","role":"PRINCIPAL_INVESTIGATOR"}],"geoPoint":{"lat":27.80058,"lon":-97.39638}},{"facility":"Medical City Dallas Hospital","status":"RECRUITING","city":"Dallas","state":"Texas","zip":"75230","country":"United States","contacts":[{"name":"Site Public Contact","role":"CONTACT","phone":"972-566-5588"},{"name":"Stanton C. Goldman","role":"PRINCIPAL_INVESTIGATOR"}],"geoPoint":{"lat":32.78306,"lon":-96.80667}},{"facility":"UT Southwestern/Simmons Cancer Center-Dallas","status":"RECRUITING","city":"Dallas","state":"Texas","zip":"75390","country":"United States","contacts":[{"name":"Site Public Contact","role":"CONTACT","phone":"214-648-7097","email":"canceranswerline@UTSouthwestern.edu"},{"name":"Patrick J. Leavey","role":"PRINCIPAL_INVESTIGATOR"}],"geoPoint":{"lat":32.78306,"lon":-96.80667}},{"facility":"Cook Children's Medical Center","status":"SUSPENDED","city":"Fort Worth","state":"Texas","zip":"76104","country":"United States","geoPoint":{"lat":32.72541,"lon":-97.32085}},{"facility":"Baylor College of Medicine/Dan L Duncan Comprehensive Cancer Center","status":"RECRUITING","city":"Houston","state":"Texas","zip":"77030","country":"United States","contacts":[{"name":"Site Public Contact","role":"CONTACT","phone":"713-798-1354","email":"burton@bcm.edu"},{"name":"ZoAnn E. Dreyer","role":"PRINCIPAL_INVESTIGATOR"}],"geoPoint":{"lat":29.76328,"lon":-95.36327}},{"facility":"M D Anderson Cancer Center","status":"ACTIVE_NOT_RECRUITING","city":"Houston","state":"Texas","zip":"77030","country":"United States","geoPoint":{"lat":29.76328,"lon":-95.36327}},{"facility":"Children's Hospital of San Antonio","status":"SUSPENDED","city":"San Antonio","state":"Texas","zip":"78207","country":"United States","geoPoint":{"lat":29.42412,"lon":-98.49363}},{"facility":"Methodist Children's Hospital of South Texas","status":"SUSPENDED","city":"San Antonio","state":"Texas","zip":"78229","country":"United States","geoPoint":{"lat":29.42412,"lon":-98.49363}},{"facility":"University of Texas Health Science Center at San Antonio","status":"ACTIVE_NOT_RECRUITING","city":"San Antonio","state":"Texas","zip":"78229","country":"United States","geoPoint":{"lat":29.42412,"lon":-98.49363}},{"facility":"Scott and White Memorial Hospital","status":"RECRUITING","city":"Temple","state":"Texas","zip":"76508","country":"United States","contacts":[{"name":"Site Public Contact","role":"CONTACT","phone":"254-724-5407"},{"name":"Nicholas W. McGregor","role":"PRINCIPAL_INVESTIGATOR"}],"geoPoint":{"lat":31.09823,"lon":-97.34278}},{"facility":"Primary Children's Hospital","status":"SUSPENDED","city":"Salt Lake City","state":"Utah","zip":"84113","country":"United States","geoPoint":{"lat":40.76078,"lon":-111.89105}},{"facility":"University of Vermont and State Agricultural College","status":"RECRUITING","city":"Burlington","state":"Vermont","zip":"05405","country":"United States","contacts":[{"name":"Site Public Contact","role":"CONTACT","phone":"802-656-8990","email":"rpo@uvm.edu"},{"name":"Jessica L. Heath","role":"PRINCIPAL_INVESTIGATOR"}],"geoPoint":{"lat":44.47588,"lon":-73.21207}},{"facility":"Inova Fairfax Hospital","status":"SUSPENDED","city":"Falls Church","state":"Virginia","zip":"22042","country":"United States","geoPoint":{"lat":38.88233,"lon":-77.17109}},{"facility":"Children's Hospital of The King's Daughters","status":"RECRUITING","city":"Norfolk","state":"Virginia","zip":"23507","country":"United States","contacts":[{"name":"Site Public Contact","role":"CONTACT","phone":"757-668-7243","email":"CCBDCresearch@chkd.org"},{"name":"Eric J. Lowe","role":"PRINCIPAL_INVESTIGATOR"}],"geoPoint":{"lat":36.84681,"lon":-76.28522}},{"facility":"Virginia Commonwealth University/Massey Cancer Center","status":"SUSPENDED","city":"Richmond","state":"Virginia","zip":"23298","country":"United States","geoPoint":{"lat":37.55376,"lon":-77.46026}},{"facility":"Carilion Clinic Children's Hospital","status":"RECRUITING","city":"Roanoke","state":"Virginia","zip":"24014","country":"United States","contacts":[{"name":"Site Public Contact","role":"CONTACT","phone":"540-266-6238","email":"wpmccarty@carilionclinic.org"},{"name":"Mandy M. Atkinson","role":"PRINCIPAL_INVESTIGATOR"}],"geoPoint":{"lat":37.27097,"lon":-79.94143}},{"facility":"Seattle Children's Hospital","status":"SUSPENDED","city":"Seattle","state":"Washington","zip":"98105","country":"United States","geoPoint":{"lat":47.60621,"lon":-122.33207}},{"facility":"Providence Sacred Heart Medical Center and Children's Hospital","status":"RECRUITING","city":"Spokane","state":"Washington","zip":"99204","country":"United States","contacts":[{"name":"Site Public Contact","role":"CONTACT","phone":"800-228-6618","email":"HopeBeginsHere@providence.org"},{"name":"Judy L. Felgenhauer","role":"PRINCIPAL_INVESTIGATOR"}],"geoPoint":{"lat":47.65966,"lon":-117.42908}},{"facility":"West Virginia University Charleston Division","status":"ACTIVE_NOT_RECRUITING","city":"Charleston","state":"West Virginia","zip":"25304","country":"United States","geoPoint":{"lat":38.34982,"lon":-81.63262}},{"facility":"Saint Vincent Hospital Cancer Center Green Bay","status":"RECRUITING","city":"Green Bay","state":"Wisconsin","zip":"54301","country":"United States","contacts":[{"name":"Site Public Contact","role":"CONTACT","phone":"920-433-8889","email":"Christy.Gilchrist@hshs.org"},{"name":"Catherine A. Long","role":"PRINCIPAL_INVESTIGATOR"}],"geoPoint":{"lat":44.51916,"lon":-88.01983}},{"facility":"University of Wisconsin Hospital and Clinics","status":"RECRUITING","city":"Madison","state":"Wisconsin","zip":"53792","country":"United States","contacts":[{"name":"Site Public Contact","role":"CONTACT","phone":"800-622-8922"},{"name":"Kenneth B. De Santes","role":"PRINCIPAL_INVESTIGATOR"}],"geoPoint":{"lat":43.07305,"lon":-89.40123}},{"facility":"Children's Hospital of Wisconsin","status":"RECRUITING","city":"Milwaukee","state":"Wisconsin","zip":"53226","country":"United States","contacts":[{"name":"Site Public Contact","role":"CONTACT","phone":"414-955-4727","email":"MACCCTO@mcw.edu"},{"name":"Paul D. Harker-Murray","role":"PRINCIPAL_INVESTIGATOR"}],"geoPoint":{"lat":43.0389,"lon":-87.90647}},{"facility":"Royal Brisbane and Women's Hospital","status":"ACTIVE_NOT_RECRUITING","city":"Herston","state":"Queensland","zip":"4029","country":"Australia","geoPoint":{"lat":-27.44453,"lon":153.01852}},{"facility":"Royal Children's Hospital-Brisbane","status":"ACTIVE_NOT_RECRUITING","city":"Herston","state":"Queensland","zip":"4029","country":"Australia","geoPoint":{"lat":-27.44453,"lon":153.01852}},{"facility":"Queensland Children's Hospital","status":"RECRUITING","city":"South Brisbane","state":"Queensland","zip":"4101","country":"Australia","contacts":[{"name":"Site Public Contact","role":"CONTACT","phone":"61 7 3068 1111"},{"name":"Helen Irving","role":"PRINCIPAL_INVESTIGATOR"}],"geoPoint":{"lat":-27.48034,"lon":153.02049}},{"facility":"Women's and Children's Hospital-Adelaide","status":"RECRUITING","city":"North Adelaide","state":"South Australia","zip":"5006","country":"Australia","contacts":[{"name":"Site Public Contact","role":"CONTACT","phone":"(08) 8161 7327","email":"cywhs.oncsec@health.sa.gov.au"},{"name":"Maria L. Kirby","role":"PRINCIPAL_INVESTIGATOR"}],"geoPoint":{"lat":-34.90733,"lon":138.59141}},{"facility":"Royal Children's Hospital","status":"RECRUITING","city":"Parkville","state":"Victoria","zip":"3052","country":"Australia","contacts":[{"name":"Site Public Contact","role":"CONTACT","phone":"61 3 9345 5656","email":"Jordan.Hansford@rch.org.au"},{"name":"Jordan R. Hansford","role":"PRINCIPAL_INVESTIGATOR"}],"geoPoint":{"lat":-37.78333,"lon":144.95}},{"facility":"Princess Margaret Hospital for Children","status":"ACTIVE_NOT_RECRUITING","city":"Perth","state":"Western Australia","zip":"6008","country":"Australia","geoPoint":{"lat":-31.95224,"lon":115.8614}},{"facility":"Perth Children's Hospital","status":"RECRUITING","city":"Perth","state":"Western Australia","zip":"6009","country":"Australia","contacts":[{"name":"Site Public Contact","role":"CONTACT","email":"helpdesk@childrensoncologygroup.org"},{"name":"Marianne B. Phillips","role":"PRINCIPAL_INVESTIGATOR"}],"geoPoint":{"lat":-31.95224,"lon":115.8614}},{"facility":"University of Alberta Hospital","status":"RECRUITING","city":"Edmonton","state":"Alberta","zip":"T6G 2B7","country":"Canada","contacts":[{"name":"Site Public Contact","role":"CONTACT","phone":"780-407-6615","email":"val.taylor@albertahealthservices.ca"},{"name":"Sarah J. McKillop","role":"PRINCIPAL_INVESTIGATOR"}],"geoPoint":{"lat":53.55014,"lon":-113.46871}},{"facility":"British Columbia Children's Hospital","status":"SUSPENDED","city":"Vancouver","state":"British Columbia","zip":"V6H 3V4","country":"Canada","geoPoint":{"lat":49.24966,"lon":-123.11934}},{"facility":"CancerCare Manitoba","status":"RECRUITING","city":"Winnipeg","state":"Manitoba","zip":"R3E 0V9","country":"Canada","contacts":[{"name":"Site Public Contact","role":"CONTACT","phone":"866-561-1026","email":"ctu_web@cancercare.mb.ca"},{"name":"Tanya R. Brown","role":"PRINCIPAL_INVESTIGATOR"}],"geoPoint":{"lat":49.8844,"lon":-97.14704}},{"facility":"IWK Health Centre","status":"RECRUITING","city":"Halifax","state":"Nova Scotia","zip":"B3K 6R8","country":"Canada","contacts":[{"name":"Site Public Contact","role":"CONTACT","phone":"902-470-6767"},{"name":"Conrad V. Fernandez","role":"PRINCIPAL_INVESTIGATOR"}],"geoPoint":{"lat":44.64533,"lon":-63.57239}},{"facility":"McMaster Children's Hospital at Hamilton Health Sciences","status":"RECRUITING","city":"Hamilton","state":"Ontario","zip":"L8N 3Z5","country":"Canada","contacts":[{"name":"Site Public Contact","role":"CONTACT","phone":"905-521-2100"},{"name":"Uma H. Athale","role":"PRINCIPAL_INVESTIGATOR"}],"geoPoint":{"lat":43.25011,"lon":-79.84963}},{"facility":"Kingston Health Sciences Centre","status":"RECRUITING","city":"Kingston","state":"Ontario","zip":"K7L 2V7","country":"Canada","contacts":[{"name":"Site Public Contact","role":"CONTACT","phone":"613-549-6666","email":"cc-clinicaltrials@kgh.kari.net"},{"name":"Mariana P. Silva","role":"PRINCIPAL_INVESTIGATOR"}],"geoPoint":{"lat":44.22976,"lon":-76.48101}},{"facility":"Children's Hospital","status":"RECRUITING","city":"London","state":"Ontario","zip":"N6A 5W9","country":"Canada","contacts":[{"name":"Site Public Contact","role":"CONTACT","phone":"519-685-8306"},{"name":"Shayna M. Zelcer","role":"PRINCIPAL_INVESTIGATOR"}],"geoPoint":{"lat":42.98339,"lon":-81.23304}},{"facility":"Children's Hospital of Eastern Ontario","status":"RECRUITING","city":"Ottawa","state":"Ontario","zip":"K1H 8L1","country":"Canada","contacts":[{"name":"Site Public Contact","role":"CONTACT","phone":"613-738-3931"},{"name":"Donna L. Johnston","role":"PRINCIPAL_INVESTIGATOR"}],"geoPoint":{"lat":45.41117,"lon":-75.69812}},{"facility":"Hospital for Sick Children","status":"RECRUITING","city":"Toronto","state":"Ontario","zip":"M5G 1X8","country":"Canada","contacts":[{"name":"Site Public Contact","role":"CONTACT","phone":"416-813-7654","phoneExt":"2027","email":"jason.mcguire@sickkids.ca"},{"name":"Paul C. Nathan","role":"PRINCIPAL_INVESTIGATOR"}],"geoPoint":{"lat":43.70011,"lon":-79.4163}},{"facility":"The Montreal Children's Hospital of the MUHC","status":"ACTIVE_NOT_RECRUITING","city":"Montreal","state":"Quebec","zip":"H3H 1P3","country":"Canada","geoPoint":{"lat":45.50884,"lon":-73.58781}},{"facility":"Centre Hospitalier Universitaire Sainte-Justine","status":"RECRUITING","city":"Montreal","state":"Quebec","zip":"H3T 1C5","country":"Canada","contacts":[{"name":"Site Public Contact","role":"CONTACT","phone":"514-345-4931"},{"name":"Yvan Samson","role":"PRINCIPAL_INVESTIGATOR"}],"geoPoint":{"lat":45.50884,"lon":-73.58781}},{"facility":"Allan Blair Cancer Centre","status":"ACTIVE_NOT_RECRUITING","city":"Regina","state":"Saskatchewan","zip":"S4T 7T1","country":"Canada","geoPoint":{"lat":50.45008,"lon":-104.6178}},{"facility":"Saskatoon Cancer Centre","status":"RECRUITING","city":"Saskatoon","state":"Saskatchewan","zip":"S7N 4H4","country":"Canada","contacts":[{"name":"Site Public Contact","role":"CONTACT","phone":"306-655-2914"},{"name":"Christopher Mpofu","role":"PRINCIPAL_INVESTIGATOR"}],"geoPoint":{"lat":52.13238,"lon":-106.66892}},{"facility":"San Jorge Children's Hospital","status":"SUSPENDED","city":"San Juan","zip":"00912","country":"Puerto Rico","geoPoint":{"lat":18.46633,"lon":-66.10572}},{"facility":"Swiss Pediatric Oncology Group - Geneva","status":"SUSPENDED","city":"Geneva","zip":"1205","country":"Switzerland","geoPoint":{"lat":46.20222,"lon":6.14569}}]},"referencesModule":{"references":[{"pmid":"26811534","type":"DERIVED","citation":"Wang X, Sun CL, Quinones-Lombrana A, Singh P, Landier W, Hageman L, Mather M, Rotter JI, Taylor KD, Chen YD, Armenian SH, Winick N, Ginsberg JP, Neglia JP, Oeffinger KC, Castellino SM, Dreyer ZE, Hudson MM, Robison LL, Blanco JG, Bhatia S. CELF4 Variant and Anthracycline-Related Cardiomyopathy: A Children's Oncology Group Genome-Wide Association Study. J Clin Oncol. 2016 Mar 10;34(8):863-70. doi: 10.1200/JCO.2015.63.4550. Epub 2016 Jan 25."}]}},"derivedSection":{"miscInfoModule":{"versionHolder":"2024-08-28","removedCountries":["Netherlands","New Zealand"]},"conditionBrowseModule":{"meshes":[{"id":"D000009369","term":"Neoplasms"}]}},"hasResults":false}