{"protocolSection":{"identificationModule":{"nctId":"NCT00736749","orgStudyIdInfo":{"id":"ALTE05N1"},"secondaryIdInfos":[{"id":"NCI-2009-00382","type":"REGISTRY","domain":"CTRP (Clinical Trial Reporting Program)"},{"id":"PALTE05N1_A06PAMDREVW01"},{"id":"CDR0000590123"},{"id":"ALTE05N1","type":"OTHER","domain":"Childrens Oncology Group"},{"id":"ALTE05N1","type":"OTHER","domain":"CTEP"},{"id":"U10CA180886","type":"NIH","link":"https://reporter.nih.gov/quickSearch/U10CA180886"},{"id":"U10CA098543","type":"NIH","link":"https://reporter.nih.gov/quickSearch/U10CA098543"},{"id":"UG1CA189955","type":"NIH","link":"https://reporter.nih.gov/quickSearch/UG1CA189955"},{"id":"UG1CA189958","type":"NIH","link":"https://reporter.nih.gov/quickSearch/UG1CA189958"}],"organization":{"fullName":"Children's Oncology Group","class":"NETWORK"},"briefTitle":"Long-Term Follow-Up of Patients Who Have Participated in Children's Oncology Group Studies","officialTitle":"Umbrella Long-Term Follow-Up Protocol"},"statusModule":{"statusVerifiedDate":"2024-04","overallStatus":"RECRUITING","expandedAccessInfo":{"hasExpandedAccess":false},"startDateStruct":{"date":"2008-07-17","type":"ACTUAL"},"primaryCompletionDateStruct":{"date":"2100-01-31","type":"ESTIMATED"},"studyFirstSubmitDate":"2008-08-15","studyFirstSubmitQcDate":"2008-08-15","studyFirstPostDateStruct":{"date":"2008-08-18","type":"ESTIMATED"},"lastUpdateSubmitDate":"2024-04-10","lastUpdatePostDateStruct":{"date":"2024-04-11","type":"ACTUAL"}},"sponsorCollaboratorsModule":{"responsibleParty":{"type":"SPONSOR"},"leadSponsor":{"name":"Children's Oncology Group","class":"NETWORK"},"collaborators":[{"name":"National Cancer Institute (NCI)","class":"NIH"}]},"oversightModule":{"oversightHasDmc":false},"descriptionModule":{"briefSummary":"This clinical trial keeps track of and collects follow-up information from patients who are currently enrolled on or have participated in a Children's Oncology Group study. Developing a way to keep track of patients who have participated in Children's Oncology Group studies may allow doctors learn more about the long-term effects of cancer treatment and help them reduce problems related to treatment and improve patient quality of life.","detailedDescription":"PRIMARY OBJECTIVES:\n\nI. To develop a mechanism for tracking and retaining patients enrolled on Children's Oncology Group (COG) protocols.\n\nII. To maintain regular, lifetime contact with patients in order to obtain current identification and contact information, and self/parent-reported quality of life and health status.\n\nIII. To locate patients who are lost-to-follow-up for COG (or Legacy Group) protocols targeted for follow-up by the Long-Term Follow-Up Center (LTFC).\n\nIV. To provide current patient contact information and self/parent-reported health status updates to the COG Statistics and Data Center (SDC) and to each patient's COG institution.\n\nV. To facilitate collection of protocol-specific outcome data through collaboration with the LTFC Oversight Committee, the SDC, and the member institutions.\n\nOUTLINE: This is an umbrella protocol for all long-term follow-up at COG institutions.\n\nWithin 3 months of enrollment on ALTE05N1, patients receive a packet introducing the Long-Term Follow-Up Center (LTFC). Patients are asked to complete a patient response form, verify information provided in packet, and update contact and health status information. The Health Status Update Form is a brief document including questions about current health status, disease status, and cancer therapy received since the last mailing. Patients may respond by use of postage prepaid envelopes, secure online form, or 24-hour toll-free telephone number. After initial contact, the LTFC will contact the patient annually."},"conditionsModule":{"conditions":["Hematopoietic Cell Transplantation Recipient","Leukemia","Solid Tumor"]},"designModule":{"studyType":"OBSERVATIONAL","enrollmentInfo":{"count":5000,"type":"ESTIMATED"}},"armsInterventionsModule":{"armGroups":[{"label":"Observational (long-term follow-up)","description":"Within 3 months of enrollment on ALTE05N1, patients receive a packet introducing the Long-Term Follow-Up Center (LTFC). Patients are asked to complete a patient response form, verify information provided in packet, and update contact and health status information. The Health Status Update Form is a brief document including questions about current health status, disease status, and cancer therapy received since the last mailing. Patients may respond by use of postage prepaid envelopes, secure online form, or 24-hour toll-free telephone number. After initial contact, the LTFC will contact the patient annually","interventionNames":["Procedure: Assessment of Therapy Complications","Other: Questionnaire Administration"]}],"interventions":[{"type":"PROCEDURE","name":"Assessment of Therapy Complications","description":"Complete patient response form and Health Status Update Form","armGroupLabels":["Observational (long-term follow-up)"]},{"type":"OTHER","name":"Questionnaire Administration","description":"Complete patient response form, Health Status Update Form (called the \"Keep in Touch\" form), and Quality of Life Questionnaire (PROMIS)","armGroupLabels":["Observational (long-term follow-up)"]}]},"outcomesModule":{"primaryOutcomes":[{"measure":"Percentage of patients enrolled","timeFrame":"Up to 20 years"},{"measure":"Percentage of patients in which long-term (20+ years) contact is maintained","timeFrame":"Up to 20 years"},{"measure":"Percentage of eligible patients located who were lost to follow-up","timeFrame":"Up to 20 years"},{"measure":"Percentage of located patients enrolled","description":"Differences between participants and non-participants will be examined annually, in terms of demographic (age, sex, ethnicity) and clinical characteristics (primary diagnosis, therapeutic protocol, time since diagnosis, treating institution).","timeFrame":"Up to 20 years"},{"measure":"Collection of protocol-specific outcome data","description":"Methods of statistical analysis to be used are those appropriate for analysis of cohort studies. Poisson regression (piece-wise exponential models) and Cox regression will be the primary methods of risk-factor analysis. When comparing study cohort with national rates, Poisson regression will be used. When the comparison is internal (ie, no use of national standard rates), Cox regression will be used.","timeFrame":"Up to 20 years"},{"measure":"Collection of cumulative therapeutic exposure data","timeFrame":"Up to 20 years"}]},"eligibilityModule":{"eligibilityCriteria":"Inclusion Criteria:\n\n* The patient must reside in the U.S. on the date of enrollment to ALTE05N1\n* All patients and/or their parents or legal guardians must sign a written informed consent\n* All institutional, Food and Drug Administration (FDA), and National Cancer Institute (NCI) requirements for human studies must be met","healthyVolunteers":false,"sex":"ALL","stdAges":["CHILD","ADULT","OLDER_ADULT"],"samplingMethod":"NON_PROBABILITY_SAMPLE"},"contactsLocationsModule":{"overallOfficials":[{"name":"Smita Bhatia","affiliation":"Children's Oncology Group","role":"PRINCIPAL_INVESTIGATOR"}],"locations":[{"facility":"Children's Hospital of Alabama","status":"RECRUITING","city":"Birmingham","state":"Alabama","zip":"35233","country":"United States","contacts":[{"name":"Site Public Contact","role":"CONTACT","email":"helpdesk@childrensoncologygroup.org"},{"name":"Smita Bhatia","role":"PRINCIPAL_INVESTIGATOR"}],"geoPoint":{"lat":33.52066,"lon":-86.80249}},{"facility":"University of Alabama at Birmingham Cancer Center","status":"ACTIVE_NOT_RECRUITING","city":"Birmingham","state":"Alabama","zip":"35233","country":"United States","geoPoint":{"lat":33.52066,"lon":-86.80249}},{"facility":"USA Health Strada Patient Care Center","status":"RECRUITING","city":"Mobile","state":"Alabama","zip":"36604","country":"United States","contacts":[{"name":"Site Public Contact","role":"CONTACT","phone":"800-388-8721"},{"name":"Hamayun Imran","role":"PRINCIPAL_INVESTIGATOR"}],"geoPoint":{"lat":30.69436,"lon":-88.04305}},{"facility":"Phoenix Childrens Hospital","status":"RECRUITING","city":"Phoenix","state":"Arizona","zip":"85016","country":"United States","contacts":[{"name":"Site Public Contact","role":"CONTACT","phone":"602-546-0920"},{"name":"Jessica Boklan","role":"PRINCIPAL_INVESTIGATOR"}],"geoPoint":{"lat":33.44838,"lon":-112.07404}},{"facility":"The University of Arizona Medical Center-University Campus","status":"RECRUITING","city":"Tucson","state":"Arizona","zip":"85724","country":"United States","contacts":[{"name":"Site Public Contact","role":"CONTACT","phone":"520-626-9008"},{"name":"Yi Zeng","role":"PRINCIPAL_INVESTIGATOR"}],"geoPoint":{"lat":32.22174,"lon":-110.92648}},{"facility":"Arkansas Children's Hospital","status":"RECRUITING","city":"Little Rock","state":"Arkansas","zip":"72202-3591","country":"United States","contacts":[{"name":"Site Public Contact","role":"CONTACT","email":"helpdesk@childrensoncologygroup.org"},{"name":"David L. Becton","role":"PRINCIPAL_INVESTIGATOR"}],"geoPoint":{"lat":34.74648,"lon":-92.28959}},{"facility":"University of Arkansas for Medical Sciences","status":"ACTIVE_NOT_RECRUITING","city":"Little Rock","state":"Arkansas","zip":"72205","country":"United States","geoPoint":{"lat":34.74648,"lon":-92.28959}},{"facility":"Kaiser Permanente Downey Medical Center","status":"RECRUITING","city":"Downey","state":"California","zip":"90242","country":"United States","contacts":[{"name":"Site Public Contact","role":"CONTACT","phone":"510-891-3400"},{"name":"Robert M. Cooper","role":"PRINCIPAL_INVESTIGATOR"}],"geoPoint":{"lat":33.94001,"lon":-118.13257}},{"facility":"City of Hope Comprehensive Cancer Center","status":"RECRUITING","city":"Duarte","state":"California","zip":"91010","country":"United States","contacts":[{"name":"Site Public Contact","role":"CONTACT","phone":"800-826-4673","email":"becomingapatient@coh.org"},{"name":"Anna B. Pawlowska","role":"PRINCIPAL_INVESTIGATOR"}],"geoPoint":{"lat":34.13945,"lon":-117.97729}},{"facility":"Loma Linda University Medical Center","status":"SUSPENDED","city":"Loma Linda","state":"California","zip":"92354","country":"United States","geoPoint":{"lat":34.04835,"lon":-117.26115}},{"facility":"Miller Children's and Women's Hospital Long Beach","status":"RECRUITING","city":"Long Beach","state":"California","zip":"90806","country":"United States","contacts":[{"name":"Site Public Contact","role":"CONTACT","email":"helpdesk@childrensoncologygroup.org"},{"name":"Pamela H. Kempert","role":"PRINCIPAL_INVESTIGATOR"}],"geoPoint":{"lat":33.76696,"lon":-118.18923}},{"facility":"Children's Hospital Los Angeles","status":"RECRUITING","city":"Los Angeles","state":"California","zip":"90027","country":"United States","contacts":[{"name":"Site Public Contact","role":"CONTACT","email":"helpdesk@childrensoncologygroup.org"},{"name":"Leo Mascarenhas","role":"PRINCIPAL_INVESTIGATOR"}],"geoPoint":{"lat":34.05223,"lon":-118.24368}},{"facility":"Cedars Sinai Medical Center","status":"RECRUITING","city":"Los Angeles","state":"California","zip":"90048","country":"United States","contacts":[{"name":"Site Public Contact","role":"CONTACT","phone":"310-423-8965"},{"name":"Fataneh (Fae) Majlessipour","role":"PRINCIPAL_INVESTIGATOR"}],"geoPoint":{"lat":34.05223,"lon":-118.24368}},{"facility":"Mattel Children's Hospital UCLA","status":"RECRUITING","city":"Los Angeles","state":"California","zip":"90095","country":"United States","contacts":[{"name":"Site Public Contact","role":"CONTACT","email":"helpdesk@childrensoncologygroup.org"},{"name":"William A. May","role":"PRINCIPAL_INVESTIGATOR"}],"geoPoint":{"lat":34.05223,"lon":-118.24368}},{"facility":"Valley Children's Hospital","status":"RECRUITING","city":"Madera","state":"California","zip":"93636","country":"United States","contacts":[{"name":"Site Public Contact","role":"CONTACT","email":"helpdesk@childrensoncologygroup.org"},{"name":"Vonda L. Crouse","role":"PRINCIPAL_INVESTIGATOR"}],"geoPoint":{"lat":36.96134,"lon":-120.06072}},{"facility":"Kaiser Permanente-Oakland","status":"RECRUITING","city":"Oakland","state":"California","zip":"94611","country":"United States","contacts":[{"name":"Site Public Contact","role":"CONTACT","phone":"877-642-4691","email":"Kpoct@kp.org"},{"name":"Laura A. Campbell","role":"PRINCIPAL_INVESTIGATOR"}],"geoPoint":{"lat":37.80437,"lon":-122.2708}},{"facility":"Children's Hospital of Orange County","status":"RECRUITING","city":"Orange","state":"California","zip":"92868","country":"United States","contacts":[{"name":"Site Public Contact","role":"CONTACT","email":"helpdesk@childrensoncologygroup.org"},{"name":"Elyssa M. Rubin","role":"PRINCIPAL_INVESTIGATOR"}],"geoPoint":{"lat":33.78779,"lon":-117.85311}},{"facility":"Lucile Packard Children's Hospital Stanford University","status":"RECRUITING","city":"Palo Alto","state":"California","zip":"94304","country":"United States","contacts":[{"name":"Site Public Contact","role":"CONTACT","email":"helpdesk@childrensoncologygroup.org"},{"name":"Sheri L. Spunt","role":"PRINCIPAL_INVESTIGATOR"}],"geoPoint":{"lat":37.44188,"lon":-122.14302}},{"facility":"University of California Davis Comprehensive Cancer Center","status":"RECRUITING","city":"Sacramento","state":"California","zip":"95817","country":"United States","contacts":[{"name":"Site Public Contact","role":"CONTACT","phone":"916-734-3089"},{"name":"Marcio H. Malogolowkin","role":"PRINCIPAL_INVESTIGATOR"}],"geoPoint":{"lat":38.58157,"lon":-121.4944}},{"facility":"Rady Children's Hospital - San Diego","status":"RECRUITING","city":"San Diego","state":"California","zip":"92123","country":"United States","contacts":[{"name":"Site Public Contact","role":"CONTACT","email":"helpdesk@childrensoncologygroup.org"},{"name":"William D. Roberts","role":"PRINCIPAL_INVESTIGATOR"}],"geoPoint":{"lat":32.71533,"lon":-117.15726}},{"facility":"UCSF Medical Center-Parnassus","status":"ACTIVE_NOT_RECRUITING","city":"San Francisco","state":"California","zip":"94143","country":"United States","geoPoint":{"lat":37.77493,"lon":-122.41942}},{"facility":"UCSF Medical Center-Mission Bay","status":"RECRUITING","city":"San Francisco","state":"California","zip":"94158","country":"United States","contacts":[{"name":"Site Public Contact","role":"CONTACT","phone":"877-827-3222"},{"name":"Robert E. Goldsby","role":"PRINCIPAL_INVESTIGATOR"}],"geoPoint":{"lat":37.77493,"lon":-122.41942}},{"facility":"Children's Hospital Colorado","status":"RECRUITING","city":"Aurora","state":"Colorado","zip":"80045","country":"United States","contacts":[{"name":"Site Public Contact","role":"CONTACT","email":"helpdesk@childrensoncologygroup.org"},{"name":"Kelly W. Maloney","role":"PRINCIPAL_INVESTIGATOR"}],"geoPoint":{"lat":39.72943,"lon":-104.83192}},{"facility":"Rocky Mountain Hospital for Children-Presbyterian Saint Luke's Medical Center","status":"RECRUITING","city":"Denver","state":"Colorado","zip":"80218","country":"United States","contacts":[{"name":"Site Public Contact","role":"CONTACT","email":"helpdesk@childrensoncologygroup.org"},{"name":"Jennifer J. Clark","role":"PRINCIPAL_INVESTIGATOR"}],"geoPoint":{"lat":39.73915,"lon":-104.9847}},{"facility":"Connecticut Children's Medical Center","status":"RECRUITING","city":"Hartford","state":"Connecticut","zip":"06106","country":"United States","contacts":[{"name":"Site Public Contact","role":"CONTACT","email":"helpdesk@childrensoncologygroup.org"},{"name":"Michael S. Isakoff","role":"PRINCIPAL_INVESTIGATOR"}],"geoPoint":{"lat":41.76371,"lon":-72.68509}},{"facility":"Yale University","status":"RECRUITING","city":"New Haven","state":"Connecticut","zip":"06520","country":"United States","contacts":[{"name":"Site Public Contact","role":"CONTACT","phone":"203-785-5702","email":"canceranswers@yale.edu"},{"name":"Nina S. Kadan-Lottick","role":"PRINCIPAL_INVESTIGATOR"}],"geoPoint":{"lat":41.30815,"lon":-72.92816}},{"facility":"Alfred I duPont Hospital for Children","status":"RECRUITING","city":"Wilmington","state":"Delaware","zip":"19803","country":"United States","contacts":[{"name":"Site Public Contact","role":"CONTACT","phone":"302-651-6884","email":"dperry@nemours.org"},{"name":"Ramamoorthy Nagasubramanian","role":"PRINCIPAL_INVESTIGATOR"}],"geoPoint":{"lat":39.74595,"lon":-75.54659}},{"facility":"MedStar Georgetown University Hospital","status":"RECRUITING","city":"Washington","state":"District of Columbia","zip":"20007","country":"United States","contacts":[{"name":"Site Public Contact","role":"CONTACT","phone":"202-444-2223"},{"name":"Jeffrey A. Toretsky","role":"PRINCIPAL_INVESTIGATOR"}],"geoPoint":{"lat":38.89511,"lon":-77.03637}},{"facility":"Children's National Medical Center","status":"RECRUITING","city":"Washington","state":"District of Columbia","zip":"20010","country":"United States","contacts":[{"name":"Site Public Contact","role":"CONTACT","email":"helpdesk@childrensoncologygroup.org"},{"name":"Jeffrey S. Dome","role":"PRINCIPAL_INVESTIGATOR"}],"geoPoint":{"lat":38.89511,"lon":-77.03637}},{"facility":"Broward Health Medical Center","status":"RECRUITING","city":"Fort Lauderdale","state":"Florida","zip":"33316","country":"United States","contacts":[{"name":"Site Public Contact","role":"CONTACT","phone":"954-355-5346"},{"name":"Hector M. Rodriguez-Cortes","role":"PRINCIPAL_INVESTIGATOR"}],"geoPoint":{"lat":26.12231,"lon":-80.14338}},{"facility":"Lee Memorial Health System","status":"ACTIVE_NOT_RECRUITING","city":"Fort Myers","state":"Florida","zip":"33901","country":"United States","geoPoint":{"lat":26.62168,"lon":-81.84059}},{"facility":"Golisano Children's Hospital of Southwest Florida","status":"RECRUITING","city":"Fort Myers","state":"Florida","zip":"33908","country":"United States","contacts":[{"name":"Site Public Contact","role":"CONTACT","email":"helpdesk@childrensoncologygroup.org"},{"name":"Emad K. Salman","role":"PRINCIPAL_INVESTIGATOR"}],"geoPoint":{"lat":26.62168,"lon":-81.84059}},{"facility":"University of Florida Health Science Center - Gainesville","status":"ACTIVE_NOT_RECRUITING","city":"Gainesville","state":"Florida","zip":"32610","country":"United States","geoPoint":{"lat":29.65163,"lon":-82.32483}},{"facility":"Nemours Children's Clinic-Jacksonville","status":"RECRUITING","city":"Jacksonville","state":"Florida","zip":"32207","country":"United States","contacts":[{"name":"Site Public Contact","role":"CONTACT","email":"helpdesk@childrensoncologygroup.org"},{"name":"Ramamoorthy Nagasubramanian","role":"PRINCIPAL_INVESTIGATOR"}],"geoPoint":{"lat":30.33218,"lon":-81.65565}},{"facility":"Miami Cancer Institute","status":"RECRUITING","city":"Miami","state":"Florida","zip":"33176","country":"United States","contacts":[{"name":"Site Public Contact","role":"CONTACT","phone":"800-599-2456","email":"cancerinfo@baptisthealth.net"},{"name":"Doured Daghistani","role":"PRINCIPAL_INVESTIGATOR"}],"geoPoint":{"lat":25.77427,"lon":-80.19366}},{"facility":"Florida Hospital Orlando","status":"RECRUITING","city":"Orlando","state":"Florida","zip":"32803","country":"United States","contacts":[{"name":"Site Public Contact","role":"CONTACT","phone":"407-303-2090","email":"FH.Cancer.Research@flhosp.org"},{"name":"Fouad M. Hajjar","role":"PRINCIPAL_INVESTIGATOR"}],"geoPoint":{"lat":28.53834,"lon":-81.37924}},{"facility":"Arnold Palmer Hospital for Children","status":"RECRUITING","city":"Orlando","state":"Florida","zip":"32806","country":"United States","contacts":[{"name":"Site Public Contact","role":"CONTACT","phone":"321-843-2584","email":"melissa.leffin@orlandohealth.com"},{"name":"Don E. Eslin","role":"PRINCIPAL_INVESTIGATOR"}],"geoPoint":{"lat":28.53834,"lon":-81.37924}},{"facility":"Nemours Children's Clinic - Orlando","status":"ACTIVE_NOT_RECRUITING","city":"Orlando","state":"Florida","zip":"32806","country":"United States","geoPoint":{"lat":28.53834,"lon":-81.37924}},{"facility":"UF Cancer Center at Orlando Health","status":"ACTIVE_NOT_RECRUITING","city":"Orlando","state":"Florida","zip":"32806","country":"United States","geoPoint":{"lat":28.53834,"lon":-81.37924}},{"facility":"Nemours Children's Hospital","status":"RECRUITING","city":"Orlando","state":"Florida","zip":"32827","country":"United States","contacts":[{"name":"Site Public Contact","role":"CONTACT","email":"helpdesk@childrensoncologygroup.org"},{"name":"Ramamoorthy Nagasubramanian","role":"PRINCIPAL_INVESTIGATOR"}],"geoPoint":{"lat":28.53834,"lon":-81.37924}},{"facility":"Nemours Children's Clinic - Pensacola","status":"ACTIVE_NOT_RECRUITING","city":"Pensacola","state":"Florida","zip":"32504","country":"United States","geoPoint":{"lat":30.42131,"lon":-87.21691}},{"facility":"Johns Hopkins All Children's Hospital","status":"RECRUITING","city":"Saint Petersburg","state":"Florida","zip":"33701","country":"United States","contacts":[{"name":"Site Public Contact","role":"CONTACT","email":"helpdesk@childrensoncologygroup.org"},{"name":"Peter H. Shaw","role":"PRINCIPAL_INVESTIGATOR"}],"geoPoint":{"lat":27.77086,"lon":-82.67927}},{"facility":"Saint Joseph's Hospital/Children's Hospital-Tampa","status":"SUSPENDED","city":"Tampa","state":"Florida","zip":"33607","country":"United States","geoPoint":{"lat":27.94752,"lon":-82.45843}},{"facility":"Saint Mary's Hospital","status":"RECRUITING","city":"West Palm Beach","state":"Florida","zip":"33407","country":"United States","contacts":[{"name":"Site Public Contact","role":"CONTACT","email":"helpdesk@childrensoncologygroup.org"},{"name":"Narayana Gowda","role":"PRINCIPAL_INVESTIGATOR"}],"geoPoint":{"lat":26.71534,"lon":-80.05337}},{"facility":"Children's Healthcare of Atlanta - Egleston","status":"RECRUITING","city":"Atlanta","state":"Georgia","zip":"30322","country":"United States","contacts":[{"name":"Site Public Contact","role":"CONTACT","email":"helpdesk@childrensoncologygroup.org"},{"name":"Lillian R. Meacham","role":"PRINCIPAL_INVESTIGATOR"}],"geoPoint":{"lat":33.749,"lon":-84.38798}},{"facility":"University of Hawaii Cancer Center","status":"ACTIVE_NOT_RECRUITING","city":"Honolulu","state":"Hawaii","zip":"96813","country":"United States","geoPoint":{"lat":21.30694,"lon":-157.85833}},{"facility":"Kapiolani Medical Center for Women and Children","status":"RECRUITING","city":"Honolulu","state":"Hawaii","zip":"96826","country":"United States","contacts":[{"name":"Site Public Contact","role":"CONTACT","phone":"808-983-6090"},{"name":"Wade T. Kyono","role":"PRINCIPAL_INVESTIGATOR"}],"geoPoint":{"lat":21.30694,"lon":-157.85833}},{"facility":"Saint Luke's Mountain States Tumor Institute","status":"RECRUITING","city":"Boise","state":"Idaho","zip":"83712","country":"United States","contacts":[{"name":"Site Public Contact","role":"CONTACT","email":"helpdesk@childrensoncologygroup.org"},{"name":"Eugenia Chang","role":"PRINCIPAL_INVESTIGATOR"}],"geoPoint":{"lat":43.6135,"lon":-116.20345}},{"facility":"Lurie Children's Hospital-Chicago","status":"RECRUITING","city":"Chicago","state":"Illinois","zip":"60611","country":"United States","contacts":[{"name":"Site Public Contact","role":"CONTACT","email":"helpdesk@childrensoncologygroup.org"},{"name":"Jennifer L. Reichek","role":"PRINCIPAL_INVESTIGATOR"}],"geoPoint":{"lat":41.85003,"lon":-87.65005}},{"facility":"University of Illinois","status":"RECRUITING","city":"Chicago","state":"Illinois","zip":"60612","country":"United States","contacts":[{"name":"Site Public Contact","role":"CONTACT","phone":"312-355-3046"},{"name":"Mary L. Schmidt","role":"PRINCIPAL_INVESTIGATOR"}],"geoPoint":{"lat":41.85003,"lon":-87.65005}},{"facility":"University of Chicago Comprehensive Cancer Center","status":"RECRUITING","city":"Chicago","state":"Illinois","zip":"60637","country":"United States","contacts":[{"name":"Site Public Contact","role":"CONTACT","phone":"773-702-8222","email":"cancerclinicaltrials@bsd.uchicago.edu"},{"name":"Tara O. Henderson","role":"PRINCIPAL_INVESTIGATOR"}],"geoPoint":{"lat":41.85003,"lon":-87.65005}},{"facility":"Loyola University Medical Center","status":"RECRUITING","city":"Maywood","state":"Illinois","zip":"60153","country":"United States","contacts":[{"name":"Site Public Contact","role":"CONTACT","phone":"708-226-4357"},{"name":"Eugene Suh","role":"PRINCIPAL_INVESTIGATOR"}],"geoPoint":{"lat":41.8792,"lon":-87.84312}},{"facility":"Advocate Children's Hospital-Oak Lawn","status":"RECRUITING","city":"Oak Lawn","state":"Illinois","zip":"60453","country":"United States","contacts":[{"name":"Site Public Contact","role":"CONTACT","email":"helpdesk@childrensoncologygroup.org"},{"name":"Rebecca E. McFall","role":"PRINCIPAL_INVESTIGATOR"}],"geoPoint":{"lat":41.71087,"lon":-87.75811}},{"facility":"Saint Jude Midwest Affiliate","status":"RECRUITING","city":"Peoria","state":"Illinois","zip":"61637","country":"United States","contacts":[{"name":"Site Public Contact","role":"CONTACT","phone":"888-226-4343"},{"name":"Jaime M. Libes","role":"PRINCIPAL_INVESTIGATOR"}],"geoPoint":{"lat":40.69365,"lon":-89.58899}},{"facility":"Southern Illinois University School of Medicine","status":"RECRUITING","city":"Springfield","state":"Illinois","zip":"62702","country":"United States","contacts":[{"name":"Site Public Contact","role":"CONTACT","phone":"217-545-7929"},{"name":"Gregory P. Brandt","role":"PRINCIPAL_INVESTIGATOR"}],"geoPoint":{"lat":39.80172,"lon":-89.64371}},{"facility":"Riley Hospital for Children","status":"RECRUITING","city":"Indianapolis","state":"Indiana","zip":"46202","country":"United States","contacts":[{"name":"Site Public Contact","role":"CONTACT","phone":"800-248-1199"},{"name":"Kamnesh R. Pradhan","role":"PRINCIPAL_INVESTIGATOR"}],"geoPoint":{"lat":39.76838,"lon":-86.15804}},{"facility":"Saint Vincent Hospital and Health Care Center","status":"RECRUITING","city":"Indianapolis","state":"Indiana","zip":"46260","country":"United States","contacts":[{"name":"Site Public Contact","role":"CONTACT","phone":"317-338-2194","email":"research@stvincent.org"},{"name":"Bassem I. Razzouk","role":"PRINCIPAL_INVESTIGATOR"}],"geoPoint":{"lat":39.76838,"lon":-86.15804}},{"facility":"Blank Children's Hospital","status":"RECRUITING","city":"Des Moines","state":"Iowa","zip":"50309","country":"United States","contacts":[{"name":"Site Public Contact","role":"CONTACT","email":"helpdesk@childrensoncologygroup.org"},{"name":"Samantha L. Mallory","role":"PRINCIPAL_INVESTIGATOR"}],"geoPoint":{"lat":41.60054,"lon":-93.60911}},{"facility":"University of Iowa/Holden Comprehensive Cancer Center","status":"RECRUITING","city":"Iowa City","state":"Iowa","zip":"52242","country":"United States","contacts":[{"name":"Site Public Contact","role":"CONTACT","phone":"800-237-1225"},{"name":"Mariko Sato","role":"PRINCIPAL_INVESTIGATOR"}],"geoPoint":{"lat":41.66113,"lon":-91.53017}},{"facility":"University of Kentucky/Markey Cancer Center","status":"RECRUITING","city":"Lexington","state":"Kentucky","zip":"40536","country":"United States","contacts":[{"name":"Site Public Contact","role":"CONTACT","phone":"859-257-3379"},{"name":"Vlad C. Radulescu","role":"PRINCIPAL_INVESTIGATOR"}],"geoPoint":{"lat":37.98869,"lon":-84.47772}},{"facility":"Norton Children's Hospital","status":"ACTIVE_NOT_RECRUITING","city":"Louisville","state":"Kentucky","zip":"40202","country":"United States","geoPoint":{"lat":38.25424,"lon":-85.75941}},{"facility":"Tulane University Health Sciences Center","status":"ACTIVE_NOT_RECRUITING","city":"New Orleans","state":"Louisiana","zip":"70112","country":"United States","geoPoint":{"lat":29.95465,"lon":-90.07507}},{"facility":"Children's Hospital New Orleans","status":"RECRUITING","city":"New Orleans","state":"Louisiana","zip":"70118","country":"United States","contacts":[{"name":"Site Public Contact","role":"CONTACT","email":"helpdesk@childrensoncologygroup.org"},{"name":"Lolie C. Yu","role":"PRINCIPAL_INVESTIGATOR"}],"geoPoint":{"lat":29.95465,"lon":-90.07507}},{"facility":"Ochsner Medical Center Jefferson","status":"RECRUITING","city":"New Orleans","state":"Louisiana","zip":"70121","country":"United States","contacts":[{"name":"Site Public Contact","role":"CONTACT","phone":"504-703-8712","email":"Gregory.Johnstone@ochsner.org"},{"name":"Craig Lotterman","role":"PRINCIPAL_INVESTIGATOR"}],"geoPoint":{"lat":29.95465,"lon":-90.07507}},{"facility":"Sinai Hospital of Baltimore","status":"RECRUITING","city":"Baltimore","state":"Maryland","zip":"21215","country":"United States","contacts":[{"name":"Site Public Contact","role":"CONTACT","phone":"410-601-6120","email":"pridgely@lifebridgehealth.org"},{"name":"Jason M. Fixler","role":"PRINCIPAL_INVESTIGATOR"}],"geoPoint":{"lat":39.29038,"lon":-76.61219}},{"facility":"Johns Hopkins University/Sidney Kimmel Cancer Center","status":"RECRUITING","city":"Baltimore","state":"Maryland","zip":"21287","country":"United States","contacts":[{"name":"Site Public Contact","role":"CONTACT","phone":"410-955-8804","email":"jhcccro@jhmi.edu"},{"name":"Kenneth J. Cohen","role":"PRINCIPAL_INVESTIGATOR"}],"geoPoint":{"lat":39.29038,"lon":-76.61219}},{"facility":"Walter Reed National Military Medical Center","status":"RECRUITING","city":"Bethesda","state":"Maryland","zip":"20889-5600","country":"United States","contacts":[{"name":"Site Public Contact","role":"CONTACT","phone":"301-319-2100"},{"name":"Kenneth Lieuw","role":"PRINCIPAL_INVESTIGATOR"}],"geoPoint":{"lat":38.98067,"lon":-77.10026}},{"facility":"Floating Hospital for Children at Tufts Medical Center","status":"RECRUITING","city":"Boston","state":"Massachusetts","zip":"02111","country":"United States","contacts":[{"name":"Site Public Contact","role":"CONTACT","phone":"617-636-5535"},{"name":"Michael J. Kelly","role":"PRINCIPAL_INVESTIGATOR"}],"geoPoint":{"lat":42.35843,"lon":-71.05977}},{"facility":"C S Mott Children's Hospital","status":"RECRUITING","city":"Ann Arbor","state":"Michigan","zip":"48109","country":"United States","contacts":[{"name":"Site Public Contact","role":"CONTACT","email":"helpdesk@childrensoncologygroup.org"},{"name":"Rajen Mody","role":"PRINCIPAL_INVESTIGATOR"}],"geoPoint":{"lat":42.27756,"lon":-83.74088}},{"facility":"Wayne State University/Karmanos Cancer Institute","status":"RECRUITING","city":"Detroit","state":"Michigan","zip":"48201","country":"United States","contacts":[{"name":"Site Public Contact","role":"CONTACT","phone":"313-576-9790","email":"ctoadmin@karmanos.org"},{"name":"Jeffrey W. Taub","role":"PRINCIPAL_INVESTIGATOR"}],"geoPoint":{"lat":42.33143,"lon":-83.04575}},{"facility":"Ascension Saint John Hospital","status":"RECRUITING","city":"Detroit","state":"Michigan","zip":"48236","country":"United States","contacts":[{"name":"Site Public Contact","role":"CONTACT","phone":"734-712-3671","email":"stephanie.couch@stjoeshealth.org"},{"name":"Adonis N. Lorenzana","role":"PRINCIPAL_INVESTIGATOR"}],"geoPoint":{"lat":42.33143,"lon":-83.04575}},{"facility":"Helen DeVos Children's Hospital at Spectrum Health","status":"RECRUITING","city":"Grand Rapids","state":"Michigan","zip":"49503","country":"United States","contacts":[{"name":"Site Public Contact","role":"CONTACT","email":"helpdesk@childrensoncologygroup.org"},{"name":"Jessica M. Foley","role":"PRINCIPAL_INVESTIGATOR"}],"geoPoint":{"lat":42.96336,"lon":-85.66809}},{"facility":"Children's Hospitals and Clinics of Minnesota - Minneapolis","status":"RECRUITING","city":"Minneapolis","state":"Minnesota","zip":"55404","country":"United States","contacts":[{"name":"Site Public Contact","role":"CONTACT","email":"helpdesk@childrensoncologygroup.org"},{"name":"Michael K. Richards","role":"PRINCIPAL_INVESTIGATOR"}],"geoPoint":{"lat":44.97997,"lon":-93.26384}},{"facility":"University of Minnesota/Masonic Cancer Center","status":"RECRUITING","city":"Minneapolis","state":"Minnesota","zip":"55455","country":"United States","contacts":[{"name":"Site Public Contact","role":"CONTACT","email":"helpdesk@childrensoncologygroup.org"},{"name":"Joseph P. Neglia","role":"PRINCIPAL_INVESTIGATOR"}],"geoPoint":{"lat":44.97997,"lon":-93.26384}},{"facility":"Mayo Clinic","status":"RECRUITING","city":"Rochester","state":"Minnesota","zip":"55905","country":"United States","contacts":[{"name":"Site Public Contact","role":"CONTACT","phone":"855-776-0015"},{"name":"Carola A. Arndt","role":"PRINCIPAL_INVESTIGATOR"}],"geoPoint":{"lat":44.02163,"lon":-92.4699}},{"facility":"University of Mississippi Medical Center","status":"RECRUITING","city":"Jackson","state":"Mississippi","zip":"39216","country":"United States","contacts":[{"name":"Site Public Contact","role":"CONTACT","phone":"601-815-6700"},{"name":"Gail C. Megason","role":"PRINCIPAL_INVESTIGATOR"}],"geoPoint":{"lat":32.29876,"lon":-90.18481}},{"facility":"Columbia Regional","status":"RECRUITING","city":"Columbia","state":"Missouri","zip":"65201","country":"United States","contacts":[{"name":"Site Public Contact","role":"CONTACT","email":"helpdesk@childrensoncologygroup.org"},{"name":"Barbara A. Gruner","role":"PRINCIPAL_INVESTIGATOR"}],"geoPoint":{"lat":38.95171,"lon":-92.33407}},{"facility":"Children's Mercy Hospitals and Clinics","status":"RECRUITING","city":"Kansas City","state":"Missouri","zip":"64108","country":"United States","contacts":[{"name":"Site Public Contact","role":"CONTACT","email":"helpdesk@childrensoncologygroup.org"},{"name":"Keith J. August","role":"PRINCIPAL_INVESTIGATOR"}],"geoPoint":{"lat":39.09973,"lon":-94.57857}},{"facility":"Washington University School of Medicine","status":"RECRUITING","city":"Saint Louis","state":"Missouri","zip":"63110","country":"United States","contacts":[{"name":"Site Public Contact","role":"CONTACT","phone":"800-600-3606","email":"info@siteman.wustl.edu"},{"name":"Robert J. Hayashi","role":"PRINCIPAL_INVESTIGATOR"}],"geoPoint":{"lat":38.62727,"lon":-90.19789}},{"facility":"Mercy Hospital Saint Louis","status":"RECRUITING","city":"Saint Louis","state":"Missouri","zip":"63141","country":"United States","contacts":[{"name":"Site Public Contact","role":"CONTACT","phone":"314-251-7066"},{"name":"Bethany G. Sleckman","role":"PRINCIPAL_INVESTIGATOR"}],"geoPoint":{"lat":38.62727,"lon":-90.19789}},{"facility":"University Medical Center of Southern Nevada","status":"RECRUITING","city":"Las Vegas","state":"Nevada","zip":"89102","country":"United States","contacts":[{"name":"Site Public Contact","role":"CONTACT","phone":"702-384-0013","email":"research@sncrf.org"},{"name":"Alan K. Ikeda","role":"PRINCIPAL_INVESTIGATOR"}],"geoPoint":{"lat":36.17497,"lon":-115.13722}},{"facility":"Sunrise Hospital and Medical Center","status":"RECRUITING","city":"Las Vegas","state":"Nevada","zip":"89109","country":"United States","contacts":[{"name":"Site Public Contact","role":"CONTACT","phone":"702-384-0013","email":"research@sncrf.org"},{"name":"Alan K. Ikeda","role":"PRINCIPAL_INVESTIGATOR"}],"geoPoint":{"lat":36.17497,"lon":-115.13722}},{"facility":"Alliance for Childhood Diseases/Cure 4 the Kids Foundation","status":"RECRUITING","city":"Las Vegas","state":"Nevada","zip":"89135","country":"United States","contacts":[{"name":"Site Public Contact","role":"CONTACT","phone":"702-384-0013","email":"research@sncrf.org"},{"name":"Alan K. Ikeda","role":"PRINCIPAL_INVESTIGATOR"}],"geoPoint":{"lat":36.17497,"lon":-115.13722}},{"facility":"Summerlin Hospital Medical Center","status":"RECRUITING","city":"Las Vegas","state":"Nevada","zip":"89144","country":"United States","contacts":[{"name":"Site Public Contact","role":"CONTACT","phone":"702-384-0013","email":"research@sncrf.org"},{"name":"Alan K. Ikeda","role":"PRINCIPAL_INVESTIGATOR"}],"geoPoint":{"lat":36.17497,"lon":-115.13722}},{"facility":"Dartmouth Hitchcock Medical Center","status":"RECRUITING","city":"Lebanon","state":"New Hampshire","zip":"03756","country":"United States","contacts":[{"name":"Site Public Contact","role":"CONTACT","phone":"800-639-6918","email":"cancer.research.nurse@dartmouth.edu"},{"name":"Julie Kim","role":"PRINCIPAL_INVESTIGATOR"}],"geoPoint":{"lat":43.64229,"lon":-72.25176}},{"facility":"Hackensack University Medical Center","status":"RECRUITING","city":"Hackensack","state":"New Jersey","zip":"07601","country":"United States","contacts":[{"name":"Site Public Contact","role":"CONTACT","phone":"201-996-2879"},{"name":"Michael B. Harris","role":"PRINCIPAL_INVESTIGATOR"}],"geoPoint":{"lat":40.88593,"lon":-74.04347}},{"facility":"Morristown Medical Center","status":"RECRUITING","city":"Morristown","state":"New Jersey","zip":"07960","country":"United States","contacts":[{"name":"Site Public Contact","role":"CONTACT","phone":"973-971-5900"},{"name":"Steven L. Halpern","role":"PRINCIPAL_INVESTIGATOR"}],"geoPoint":{"lat":40.79677,"lon":-74.48154}},{"facility":"Saint Peter's University Hospital","status":"RECRUITING","city":"New Brunswick","state":"New Jersey","zip":"08901","country":"United States","contacts":[{"name":"Site Public Contact","role":"CONTACT","email":"helpdesk@childrensoncologygroup.org"},{"name":"Nibal A. Zaghloul","role":"PRINCIPAL_INVESTIGATOR"}],"geoPoint":{"lat":40.48622,"lon":-74.45182}},{"facility":"Rutgers Cancer Institute of New Jersey-Robert Wood Johnson University Hospital","status":"RECRUITING","city":"New Brunswick","state":"New Jersey","zip":"08903","country":"United States","contacts":[{"name":"Site Public Contact","role":"CONTACT","phone":"732-235-8675"},{"name":"Richard A. Drachtman","role":"PRINCIPAL_INVESTIGATOR"}],"geoPoint":{"lat":40.48622,"lon":-74.45182}},{"facility":"Newark Beth Israel Medical Center","status":"SUSPENDED","city":"Newark","state":"New Jersey","zip":"07112","country":"United States","geoPoint":{"lat":40.73566,"lon":-74.17237}},{"facility":"Saint Joseph's Regional Medical Center","status":"RECRUITING","city":"Paterson","state":"New Jersey","zip":"07503","country":"United States","contacts":[{"name":"Site Public Contact","role":"CONTACT","email":"helpdesk@childrensoncologygroup.org"},{"name":"Alissa Kahn","role":"PRINCIPAL_INVESTIGATOR"}],"geoPoint":{"lat":40.91677,"lon":-74.17181}},{"facility":"Overlook Hospital","status":"ACTIVE_NOT_RECRUITING","city":"Summit","state":"New Jersey","zip":"07902","country":"United States","geoPoint":{"lat":40.71562,"lon":-74.36468}},{"facility":"University of New Mexico Cancer Center","status":"RECRUITING","city":"Albuquerque","state":"New Mexico","zip":"87102","country":"United States","contacts":[{"name":"Site Public Contact","role":"CONTACT","phone":"505-925-0366","email":"LByatt@nmcca.org"},{"name":"John F. Kuttesch","role":"PRINCIPAL_INVESTIGATOR"}],"geoPoint":{"lat":35.08449,"lon":-106.65114}},{"facility":"Albany Medical Center","status":"RECRUITING","city":"Albany","state":"New York","zip":"12208","country":"United States","contacts":[{"name":"Site Public Contact","role":"CONTACT","phone":"518-262-5513"},{"name":"Lauren R. Weintraub","role":"PRINCIPAL_INVESTIGATOR"}],"geoPoint":{"lat":42.65258,"lon":-73.75623}},{"facility":"Montefiore Medical Center - Moses Campus","status":"RECRUITING","city":"Bronx","state":"New York","zip":"10467","country":"United States","contacts":[{"name":"Site Public Contact","role":"CONTACT","phone":"718-379-6866","email":"aaraiza@montefiore.org"},{"name":"Lisa Gennarini","role":"PRINCIPAL_INVESTIGATOR"}],"geoPoint":{"lat":40.84985,"lon":-73.86641}},{"facility":"Roswell Park Cancer Institute","status":"RECRUITING","city":"Buffalo","state":"New York","zip":"14263","country":"United States","contacts":[{"name":"Site Public Contact","role":"CONTACT","phone":"800-767-9355","email":"askroswell@roswellpark.org"},{"name":"Denise A. Rokitka","role":"PRINCIPAL_INVESTIGATOR"}],"geoPoint":{"lat":42.88645,"lon":-78.87837}},{"facility":"NYU Winthrop Hospital","status":"RECRUITING","city":"Mineola","state":"New York","zip":"11501","country":"United States","contacts":[{"name":"Site Public Contact","role":"CONTACT","phone":"866-946-8476"},{"name":"Mark E. Weinblatt","role":"PRINCIPAL_INVESTIGATOR"}],"geoPoint":{"lat":40.74927,"lon":-73.64068}},{"facility":"Mount Sinai Hospital","status":"RECRUITING","city":"New York","state":"New York","zip":"10029","country":"United States","contacts":[{"name":"Site Public Contact","role":"CONTACT","phone":"212-824-7309","email":"CCTO@mssm.edu"},{"name":"Pillai Pallavi Madhusoodhan","role":"PRINCIPAL_INVESTIGATOR"}],"geoPoint":{"lat":40.71427,"lon":-74.00597}},{"facility":"NYP/Columbia University Medical Center/Herbert Irving Comprehensive Cancer Center","status":"RECRUITING","city":"New York","state":"New York","zip":"10032","country":"United States","contacts":[{"name":"Site Public Contact","role":"CONTACT","phone":"212-305-6361","email":"nr2616@cumc.columbia.edu"},{"name":"Alice Lee","role":"PRINCIPAL_INVESTIGATOR"}],"geoPoint":{"lat":40.71427,"lon":-74.00597}},{"facility":"University of Rochester","status":"RECRUITING","city":"Rochester","state":"New York","zip":"14642","country":"United States","contacts":[{"name":"Site Public Contact","role":"CONTACT","phone":"585-275-5830"},{"name":"Angela R. Girvin","role":"PRINCIPAL_INVESTIGATOR"}],"geoPoint":{"lat":43.15478,"lon":-77.61556}},{"facility":"Stony Brook University Medical Center","status":"RECRUITING","city":"Stony Brook","state":"New York","zip":"11794","country":"United States","contacts":[{"name":"Site Public Contact","role":"CONTACT","phone":"800-862-2215"},{"name":"Laura E. Hogan","role":"PRINCIPAL_INVESTIGATOR"}],"geoPoint":{"lat":40.92565,"lon":-73.14094}},{"facility":"State University of New York Upstate Medical University","status":"RECRUITING","city":"Syracuse","state":"New York","zip":"13210","country":"United States","contacts":[{"name":"Site Public Contact","role":"CONTACT","phone":"315-464-5476"},{"name":"Philip M. Monteleone","role":"PRINCIPAL_INVESTIGATOR"}],"geoPoint":{"lat":43.04812,"lon":-76.14742}},{"facility":"New York Medical College","status":"RECRUITING","city":"Valhalla","state":"New York","zip":"10595","country":"United States","contacts":[{"name":"Site Public Contact","role":"CONTACT","phone":"914-594-3794"},{"name":"Jessica C. Hochberg","role":"PRINCIPAL_INVESTIGATOR"}],"geoPoint":{"lat":41.07482,"lon":-73.77513}},{"facility":"Mission Hospital Inc-Memorial Campus","status":"RECRUITING","city":"Asheville","state":"North Carolina","zip":"28801","country":"United States","contacts":[{"name":"Site Public Contact","role":"CONTACT","phone":"828-213-4150","email":"leslie.verner@msj.org"},{"name":"Douglas J. Scothorn","role":"PRINCIPAL_INVESTIGATOR"}],"geoPoint":{"lat":35.60095,"lon":-82.55402}},{"facility":"UNC Lineberger Comprehensive Cancer Center","status":"RECRUITING","city":"Chapel Hill","state":"North Carolina","zip":"27599","country":"United States","contacts":[{"name":"Site Public Contact","role":"CONTACT","phone":"877-668-0683","email":"cancerclinicaltrials@med.unc.edu"},{"name":"Stuart H. Gold","role":"PRINCIPAL_INVESTIGATOR"}],"geoPoint":{"lat":35.9132,"lon":-79.05584}},{"facility":"Carolinas Medical Center/Levine Cancer Institute","status":"ACTIVE_NOT_RECRUITING","city":"Charlotte","state":"North Carolina","zip":"28203","country":"United States","geoPoint":{"lat":35.22709,"lon":-80.84313}},{"facility":"Novant Health Presbyterian Medical Center","status":"RECRUITING","city":"Charlotte","state":"North Carolina","zip":"28204","country":"United States","contacts":[{"name":"Site Public Contact","role":"CONTACT","phone":"704-384-5369","email":"nnechiporchik@novanthealth.org"},{"name":"Jessica A. Bell","role":"PRINCIPAL_INVESTIGATOR"}],"geoPoint":{"lat":35.22709,"lon":-80.84313}},{"facility":"Duke University Medical Center","status":"RECRUITING","city":"Durham","state":"North Carolina","zip":"27710","country":"United States","contacts":[{"name":"Site Public Contact","role":"CONTACT","phone":"888-275-3853"},{"name":"Susan G. Kreissman","role":"PRINCIPAL_INVESTIGATOR"}],"geoPoint":{"lat":35.99403,"lon":-78.89862}},{"facility":"East Carolina University","status":"RECRUITING","city":"Greenville","state":"North Carolina","zip":"27834","country":"United States","contacts":[{"name":"Site Public Contact","role":"CONTACT","phone":"252-744-1015","email":"eubankss@ecu.edu"},{"name":"Andrea R. Whitfield","role":"PRINCIPAL_INVESTIGATOR"}],"geoPoint":{"lat":35.61266,"lon":-77.36635}},{"facility":"Wake Forest University Health Sciences","status":"RECRUITING","city":"Winston-Salem","state":"North Carolina","zip":"27157","country":"United States","contacts":[{"name":"Site Public Contact","role":"CONTACT","phone":"336-713-6771"},{"name":"Thomas B. Russell","role":"PRINCIPAL_INVESTIGATOR"}],"geoPoint":{"lat":36.09986,"lon":-80.24422}},{"facility":"Sanford Broadway Medical Center","status":"RECRUITING","city":"Fargo","state":"North Dakota","zip":"58122","country":"United States","contacts":[{"name":"Site Public Contact","role":"CONTACT","phone":"701-323-5760","email":"OncologyClinicalTrialsFargo@sanfordhealth.org"},{"name":"Samuel O. Anim","role":"PRINCIPAL_INVESTIGATOR"}],"geoPoint":{"lat":46.87719,"lon":-96.7898}},{"facility":"Children's Hospital Medical Center of Akron","status":"RECRUITING","city":"Akron","state":"Ohio","zip":"44308","country":"United States","contacts":[{"name":"Site Public Contact","role":"CONTACT","email":"helpdesk@childrensoncologygroup.org"},{"name":"Steven J. Kuerbitz","role":"PRINCIPAL_INVESTIGATOR"}],"geoPoint":{"lat":41.08144,"lon":-81.51901}},{"facility":"Cincinnati Children's Hospital Medical Center","status":"RECRUITING","city":"Cincinnati","state":"Ohio","zip":"45229","country":"United States","contacts":[{"name":"Site Public Contact","role":"CONTACT","email":"helpdesk@childrensoncologygroup.org"},{"name":"Rajaram Nagarajan","role":"PRINCIPAL_INVESTIGATOR"}],"geoPoint":{"lat":39.12713,"lon":-84.51435}},{"facility":"Rainbow Babies and Childrens Hospital","status":"RECRUITING","city":"Cleveland","state":"Ohio","zip":"44106","country":"United States","contacts":[{"name":"Site Public Contact","role":"CONTACT","phone":"216-844-5437"},{"name":"John J. Letterio","role":"PRINCIPAL_INVESTIGATOR"}],"geoPoint":{"lat":41.4995,"lon":-81.69541}},{"facility":"Cleveland Clinic Foundation","status":"RECRUITING","city":"Cleveland","state":"Ohio","zip":"44195","country":"United States","contacts":[{"name":"Site Public Contact","role":"CONTACT","phone":"866-223-8100","email":"CancerAnswer@ccf.org"},{"name":"Rabi Hanna","role":"PRINCIPAL_INVESTIGATOR"}],"geoPoint":{"lat":41.4995,"lon":-81.69541}},{"facility":"Nationwide Children's Hospital","status":"RECRUITING","city":"Columbus","state":"Ohio","zip":"43205","country":"United States","contacts":[{"name":"Site Public Contact","role":"CONTACT","email":"helpdesk@childrensoncologygroup.org"},{"name":"Mark A. Ranalli","role":"PRINCIPAL_INVESTIGATOR"}],"geoPoint":{"lat":39.96118,"lon":-82.99879}},{"facility":"Dayton Children's Hospital","status":"RECRUITING","city":"Dayton","state":"Ohio","zip":"45404","country":"United States","contacts":[{"name":"Site Public Contact","role":"CONTACT","email":"helpdesk@childrensoncologygroup.org"},{"name":"Ayman A. El-Sheikh","role":"PRINCIPAL_INVESTIGATOR"}],"geoPoint":{"lat":39.75895,"lon":-84.19161}},{"facility":"The Toledo Hospital/Toledo Children's Hospital","status":"RECRUITING","city":"Toledo","state":"Ohio","zip":"43606","country":"United States","contacts":[{"name":"Site Public Contact","role":"CONTACT","phone":"419-824-1842"},{"name":"Jamie L. Dargart","role":"PRINCIPAL_INVESTIGATOR"}],"geoPoint":{"lat":41.66394,"lon":-83.55521}},{"facility":"Mercy Children's Hospital","status":"SUSPENDED","city":"Toledo","state":"Ohio","zip":"43608","country":"United States","geoPoint":{"lat":41.66394,"lon":-83.55521}},{"facility":"University of Oklahoma Health Sciences Center","status":"RECRUITING","city":"Oklahoma City","state":"Oklahoma","zip":"73104","country":"United States","contacts":[{"name":"Site Public Contact","role":"CONTACT","phone":"405-271-8777","email":"ou-clinical-trials@ouhsc.edu"},{"name":"Rene Y. McNall-Knapp","role":"PRINCIPAL_INVESTIGATOR"}],"geoPoint":{"lat":35.46756,"lon":-97.51643}},{"facility":"Natalie Warren Bryant Cancer Center at Saint Francis","status":"RECRUITING","city":"Tulsa","state":"Oklahoma","zip":"74136","country":"United States","contacts":[{"name":"Site Public Contact","role":"CONTACT","phone":"918-494-2200"},{"name":"Gregory B. Kirkpatrick","role":"PRINCIPAL_INVESTIGATOR"}],"geoPoint":{"lat":36.15398,"lon":-95.99277}},{"facility":"Legacy Emanuel Children's Hospital","status":"RECRUITING","city":"Portland","state":"Oregon","zip":"97227","country":"United States","contacts":[{"name":"Site Public Contact","role":"CONTACT","email":"helpdesk@childrensoncologygroup.org"},{"name":"Janice F. Olson","role":"PRINCIPAL_INVESTIGATOR"}],"geoPoint":{"lat":45.52345,"lon":-122.67621}},{"facility":"Oregon Health and Science University","status":"RECRUITING","city":"Portland","state":"Oregon","zip":"97239","country":"United States","contacts":[{"name":"Site Public Contact","role":"CONTACT","phone":"503-494-1080","email":"trials@ohsu.edu"},{"name":"Linda C. Stork","role":"PRINCIPAL_INVESTIGATOR"}],"geoPoint":{"lat":45.52345,"lon":-122.67621}},{"facility":"Lehigh Valley Hospital-Cedar Crest","status":"SUSPENDED","city":"Allentown","state":"Pennsylvania","zip":"18103","country":"United States","geoPoint":{"lat":40.60843,"lon":-75.49018}},{"facility":"Lehigh Valley Hospital - Muhlenberg","status":"ACTIVE_NOT_RECRUITING","city":"Bethlehem","state":"Pennsylvania","zip":"18017","country":"United States","geoPoint":{"lat":40.62593,"lon":-75.37046}},{"facility":"Penn State Children's Hospital","status":"RECRUITING","city":"Hershey","state":"Pennsylvania","zip":"17033","country":"United States","contacts":[{"name":"Site Public Contact","role":"CONTACT","email":"helpdesk@childrensoncologygroup.org"},{"name":"Lisa M. McGregor","role":"PRINCIPAL_INVESTIGATOR"}],"geoPoint":{"lat":40.28592,"lon":-76.65025}},{"facility":"Children's Hospital of Philadelphia","status":"RECRUITING","city":"Philadelphia","state":"Pennsylvania","zip":"19104","country":"United States","contacts":[{"name":"Site Public Contact","role":"CONTACT","email":"helpdesk@childrensoncologygroup.org"},{"name":"Jill P. Ginsberg","role":"PRINCIPAL_INVESTIGATOR"}],"geoPoint":{"lat":39.95233,"lon":-75.16379}},{"facility":"Saint Christopher's Hospital for Children","status":"RECRUITING","city":"Philadelphia","state":"Pennsylvania","zip":"19134","country":"United States","contacts":[{"name":"Site Public Contact","role":"CONTACT","email":"helpdesk@childrensoncologygroup.org"},{"name":"Gregory E. Halligan","role":"PRINCIPAL_INVESTIGATOR"}],"geoPoint":{"lat":39.95233,"lon":-75.16379}},{"facility":"Children's Hospital of Pittsburgh of UPMC","status":"RECRUITING","city":"Pittsburgh","state":"Pennsylvania","zip":"15224","country":"United States","contacts":[{"name":"Site Public Contact","role":"CONTACT","email":"helpdesk@childrensoncologygroup.org"},{"name":"Arthur K. Ritchey","role":"PRINCIPAL_INVESTIGATOR"}],"geoPoint":{"lat":40.44062,"lon":-79.99589}},{"facility":"Rhode Island Hospital","status":"RECRUITING","city":"Providence","state":"Rhode Island","zip":"02903","country":"United States","contacts":[{"name":"Site Public Contact","role":"CONTACT","phone":"401-444-1488"},{"name":"Jennifer J. Greene Welch","role":"PRINCIPAL_INVESTIGATOR"}],"geoPoint":{"lat":41.82399,"lon":-71.41283}},{"facility":"Medical University of South Carolina","status":"RECRUITING","city":"Charleston","state":"South Carolina","zip":"29425","country":"United States","contacts":[{"name":"Site Public Contact","role":"CONTACT","phone":"843-792-9321","email":"hcc-clinical-trials@musc.edu"},{"name":"Jacqueline M. Kraveka","role":"PRINCIPAL_INVESTIGATOR"}],"geoPoint":{"lat":32.77657,"lon":-79.93092}},{"facility":"Prisma Health Richland Hospital","status":"RECRUITING","city":"Columbia","state":"South Carolina","zip":"29203","country":"United States","contacts":[{"name":"Site Public Contact","role":"CONTACT","phone":"803-434-3533"},{"name":"Stuart L. Cramer","role":"PRINCIPAL_INVESTIGATOR"}],"geoPoint":{"lat":34.00071,"lon":-81.03481}},{"facility":"BI-LO Charities Children's Cancer Center","status":"RECRUITING","city":"Greenville","state":"South Carolina","zip":"29605","country":"United States","contacts":[{"name":"Site Public Contact","role":"CONTACT","email":"helpdesk@childrensoncologygroup.org"},{"name":"Nichole L. Bryant","role":"PRINCIPAL_INVESTIGATOR"}],"geoPoint":{"lat":34.85262,"lon":-82.39401}},{"facility":"Greenville Cancer Treatment Center","status":"ACTIVE_NOT_RECRUITING","city":"Greenville","state":"South Carolina","zip":"29605","country":"United States","geoPoint":{"lat":34.85262,"lon":-82.39401}},{"facility":"Sanford USD Medical Center - Sioux Falls","status":"RECRUITING","city":"Sioux Falls","state":"South Dakota","zip":"57117-5134","country":"United States","contacts":[{"name":"Site Public Contact","role":"CONTACT","phone":"605-312-3320","email":"OncologyClinicalTrialsSF@SanfordHealth.org"},{"name":"Kayelyn J. Wagner","role":"PRINCIPAL_INVESTIGATOR"}],"geoPoint":{"lat":43.54997,"lon":-96.70033}},{"facility":"T C Thompson Children's Hospital","status":"SUSPENDED","city":"Chattanooga","state":"Tennessee","zip":"37403","country":"United States","geoPoint":{"lat":35.04563,"lon":-85.30968}},{"facility":"East Tennessee Childrens Hospital","status":"RECRUITING","city":"Knoxville","state":"Tennessee","zip":"37916","country":"United States","contacts":[{"name":"Site Public Contact","role":"CONTACT","phone":"865-541-8266"},{"name":"Ray C. Pais","role":"PRINCIPAL_INVESTIGATOR"}],"geoPoint":{"lat":35.96064,"lon":-83.92074}},{"facility":"St. Jude Children's Research Hospital","status":"RECRUITING","city":"Memphis","state":"Tennessee","zip":"38105","country":"United States","contacts":[{"name":"Site Public Contact","role":"CONTACT","email":"helpdesk@childrensoncologygroup.org"},{"name":"Wayne L. Furman","role":"PRINCIPAL_INVESTIGATOR"}],"geoPoint":{"lat":35.14953,"lon":-90.04898}},{"facility":"Vanderbilt University/Ingram Cancer Center","status":"RECRUITING","city":"Nashville","state":"Tennessee","zip":"37232","country":"United States","contacts":[{"name":"Site Public Contact","role":"CONTACT","phone":"800-811-8480"},{"name":"Debra L. Friedman","role":"PRINCIPAL_INVESTIGATOR"}],"geoPoint":{"lat":36.16589,"lon":-86.78444}},{"facility":"Dell Children's Medical Center of Central Texas","status":"RECRUITING","city":"Austin","state":"Texas","zip":"78723","country":"United States","contacts":[{"name":"Site Public Contact","role":"CONTACT","email":"helpdesk@childrensoncologygroup.org"},{"name":"Amy C. Fowler","role":"PRINCIPAL_INVESTIGATOR"}],"geoPoint":{"lat":30.26715,"lon":-97.74306}},{"facility":"Driscoll Children's Hospital","status":"RECRUITING","city":"Corpus Christi","state":"Texas","zip":"78411","country":"United States","contacts":[{"name":"Site Public Contact","role":"CONTACT","email":"helpdesk@childrensoncologygroup.org"},{"name":"Nkechi I. Mba","role":"PRINCIPAL_INVESTIGATOR"}],"geoPoint":{"lat":27.80058,"lon":-97.39638}},{"facility":"Medical City Dallas Hospital","status":"RECRUITING","city":"Dallas","state":"Texas","zip":"75230","country":"United States","contacts":[{"name":"Site Public Contact","role":"CONTACT","phone":"972-566-5588"},{"name":"Stanton C. Goldman","role":"PRINCIPAL_INVESTIGATOR"}],"geoPoint":{"lat":32.78306,"lon":-96.80667}},{"facility":"UT Southwestern/Simmons Cancer Center-Dallas","status":"RECRUITING","city":"Dallas","state":"Texas","zip":"75390","country":"United States","contacts":[{"name":"Site Public Contact","role":"CONTACT","phone":"214-648-7097","email":"canceranswerline@UTSouthwestern.edu"},{"name":"Patrick J. Leavey","role":"PRINCIPAL_INVESTIGATOR"}],"geoPoint":{"lat":32.78306,"lon":-96.80667}},{"facility":"Cook Children's Medical Center","status":"RECRUITING","city":"Fort Worth","state":"Texas","zip":"76104","country":"United States","contacts":[{"name":"Site Public Contact","role":"CONTACT","email":"helpdesk@childrensoncologygroup.org"},{"name":"Mary Meaghan P. Granger","role":"PRINCIPAL_INVESTIGATOR"}],"geoPoint":{"lat":32.72541,"lon":-97.32085}},{"facility":"Baylor College of Medicine/Dan L Duncan Comprehensive Cancer Center","status":"RECRUITING","city":"Houston","state":"Texas","zip":"77030","country":"United States","contacts":[{"name":"Site Public Contact","role":"CONTACT","phone":"713-798-1354","email":"burton@bcm.edu"},{"name":"ZoAnn E. Dreyer","role":"PRINCIPAL_INVESTIGATOR"}],"geoPoint":{"lat":29.76328,"lon":-95.36327}},{"facility":"Children's Hospital of San Antonio","status":"RECRUITING","city":"San Antonio","state":"Texas","zip":"78207","country":"United States","contacts":[{"name":"Site Public Contact","role":"CONTACT","email":"helpdesk@childrensoncologygroup.org"},{"name":"Timothy C. Griffin","role":"PRINCIPAL_INVESTIGATOR"}],"geoPoint":{"lat":29.42412,"lon":-98.49363}},{"facility":"Methodist Children's Hospital of South Texas","status":"ACTIVE_NOT_RECRUITING","city":"San Antonio","state":"Texas","zip":"78229","country":"United States","geoPoint":{"lat":29.42412,"lon":-98.49363}},{"facility":"University of Texas Health Science Center at San Antonio","status":"RECRUITING","city":"San Antonio","state":"Texas","zip":"78229","country":"United States","contacts":[{"name":"Site Public Contact","role":"CONTACT","phone":"210-450-3800","email":"phoresearchoffice@uthscsa.edu"},{"name":"Anne-Marie R. Langevin","role":"PRINCIPAL_INVESTIGATOR"}],"geoPoint":{"lat":29.42412,"lon":-98.49363}},{"facility":"Primary Children's Hospital","status":"RECRUITING","city":"Salt Lake City","state":"Utah","zip":"84113","country":"United States","contacts":[{"name":"Site Public Contact","role":"CONTACT","email":"helpdesk@childrensoncologygroup.org"},{"name":"Phillip E. Barnette","role":"PRINCIPAL_INVESTIGATOR"}],"geoPoint":{"lat":40.76078,"lon":-111.89105}},{"facility":"University of Vermont and State Agricultural College","status":"RECRUITING","city":"Burlington","state":"Vermont","zip":"05405","country":"United States","contacts":[{"name":"Site Public Contact","role":"CONTACT","phone":"802-656-8990","email":"rpo@uvm.edu"},{"name":"Jessica L. Heath","role":"PRINCIPAL_INVESTIGATOR"}],"geoPoint":{"lat":44.47588,"lon":-73.21207}},{"facility":"Inova Fairfax Hospital","status":"ACTIVE_NOT_RECRUITING","city":"Falls Church","state":"Virginia","zip":"22042","country":"United States","geoPoint":{"lat":38.88233,"lon":-77.17109}},{"facility":"Children's Hospital of The King's Daughters","status":"RECRUITING","city":"Norfolk","state":"Virginia","zip":"23507","country":"United States","contacts":[{"name":"Site Public Contact","role":"CONTACT","email":"helpdesk@childrensoncologygroup.org"},{"name":"Eric J. Lowe","role":"PRINCIPAL_INVESTIGATOR"}],"geoPoint":{"lat":36.84681,"lon":-76.28522}},{"facility":"Naval Medical Center - Portsmouth","status":"ACTIVE_NOT_RECRUITING","city":"Portsmouth","state":"Virginia","zip":"23708-2197","country":"United States","geoPoint":{"lat":36.83543,"lon":-76.29827}},{"facility":"Virginia Commonwealth University/Massey Cancer Center","status":"RECRUITING","city":"Richmond","state":"Virginia","zip":"23298","country":"United States","contacts":[{"name":"Site Public Contact","role":"CONTACT","email":"mwellons@vcu.edu"},{"name":"Madhu S. Gowda","role":"PRINCIPAL_INVESTIGATOR"}],"geoPoint":{"lat":37.55376,"lon":-77.46026}},{"facility":"Seattle Children's Hospital","status":"RECRUITING","city":"Seattle","state":"Washington","zip":"98105","country":"United States","contacts":[{"name":"Site Public Contact","role":"CONTACT","email":"helpdesk@childrensoncologygroup.org"},{"name":"Douglas S. Hawkins","role":"PRINCIPAL_INVESTIGATOR"}],"geoPoint":{"lat":47.60621,"lon":-122.33207}},{"facility":"Providence Sacred Heart Medical Center and Children's Hospital","status":"RECRUITING","city":"Spokane","state":"Washington","zip":"99204","country":"United States","contacts":[{"name":"Site Public Contact","role":"CONTACT","email":"helpdesk@childrensoncologygroup.org"},{"name":"Judy L. Felgenhauer","role":"PRINCIPAL_INVESTIGATOR"}],"geoPoint":{"lat":47.65966,"lon":-117.42908}},{"facility":"Mary Bridge Children's Hospital and Health Center","status":"RECRUITING","city":"Tacoma","state":"Washington","zip":"98405","country":"United States","contacts":[{"name":"Site Public Contact","role":"CONTACT","email":"helpdesk@childrensoncologygroup.org"},{"name":"Robert G. Irwin","role":"PRINCIPAL_INVESTIGATOR"}],"geoPoint":{"lat":47.25288,"lon":-122.44429}},{"facility":"Madigan Army Medical Center","status":"RECRUITING","city":"Tacoma","state":"Washington","zip":"98431","country":"United States","contacts":[{"name":"Site Public Contact","role":"CONTACT","phone":"253-968-0129","email":"mamcdci@amedd.army.mil"},{"name":"Melissa A. Forouhar","role":"PRINCIPAL_INVESTIGATOR"}],"geoPoint":{"lat":47.25288,"lon":-122.44429}},{"facility":"West Virginia University Charleston Division","status":"RECRUITING","city":"Charleston","state":"West Virginia","zip":"25304","country":"United States","contacts":[{"name":"Site Public Contact","role":"CONTACT","phone":"304-388-9944"},{"name":"Ashley E. Meyer","role":"PRINCIPAL_INVESTIGATOR"}],"geoPoint":{"lat":38.34982,"lon":-81.63262}},{"facility":"Saint Vincent Hospital Cancer Center Green Bay","status":"RECRUITING","city":"Green Bay","state":"Wisconsin","zip":"54301","country":"United States","contacts":[{"name":"Site Public Contact","role":"CONTACT","phone":"920-433-8889","email":"Christy.Gilchrist@hshs.org"},{"name":"Catherine A. Long","role":"PRINCIPAL_INVESTIGATOR"}],"geoPoint":{"lat":44.51916,"lon":-88.01983}},{"facility":"University of Wisconsin Hospital and Clinics","status":"RECRUITING","city":"Madison","state":"Wisconsin","zip":"53792","country":"United States","contacts":[{"name":"Site Public Contact","role":"CONTACT","phone":"800-622-8922"},{"name":"Kenneth B. De Santes","role":"PRINCIPAL_INVESTIGATOR"}],"geoPoint":{"lat":43.07305,"lon":-89.40123}},{"facility":"Marshfield Medical Center-Marshfield","status":"RECRUITING","city":"Marshfield","state":"Wisconsin","zip":"54449","country":"United States","contacts":[{"name":"Site Public Contact","role":"CONTACT","phone":"800-782-8581","email":"oncology.clinical.trials@marshfieldresearch.org"},{"name":"Michelle A. Manalang","role":"PRINCIPAL_INVESTIGATOR"}],"geoPoint":{"lat":44.66885,"lon":-90.1718}},{"facility":"Children's Hospital of Wisconsin","status":"RECRUITING","city":"Milwaukee","state":"Wisconsin","zip":"53226","country":"United States","contacts":[{"name":"Site Public Contact","role":"CONTACT","phone":"414-955-4727","email":"MACCCTO@mcw.edu"},{"name":"Paul D. Harker-Murray","role":"PRINCIPAL_INVESTIGATOR"}],"geoPoint":{"lat":43.0389,"lon":-87.90647}},{"facility":"San Jorge Children's Hospital","status":"ACTIVE_NOT_RECRUITING","city":"San Juan","zip":"00912","country":"Puerto Rico","geoPoint":{"lat":18.46633,"lon":-66.10572}}]}},"derivedSection":{"miscInfoModule":{"versionHolder":"2024-08-28"},"conditionBrowseModule":{"browseLeaves":[{"id":"M10945","name":"Leukemia","relevance":"LOW"}],"browseBranches":[{"abbrev":"BC04","name":"Neoplasms"},{"abbrev":"BC15","name":"Blood and Lymph Conditions"},{"abbrev":"All","name":"All Conditions"}]}},"hasResults":false}