{"protocolSection":{"identificationModule":{"nctId":"NCT00898365","orgStudyIdInfo":{"id":"AREN03B2"},"secondaryIdInfos":[{"id":"NCI-2009-00416","type":"REGISTRY","domain":"CTRP (Clinical Trial Reporting Program)"},{"id":"COG-AREN03B2"},{"id":"CDR0000459797"},{"id":"AREN03B2","type":"OTHER","domain":"Children's Oncology Group"},{"id":"AREN03B2","type":"OTHER","domain":"CTEP"},{"id":"U10CA180886","type":"NIH","link":"https://reporter.nih.gov/quickSearch/U10CA180886"},{"id":"U10CA098543","type":"NIH","link":"https://reporter.nih.gov/quickSearch/U10CA098543"},{"id":"UG1CA189958","type":"NIH","link":"https://reporter.nih.gov/quickSearch/UG1CA189958"}],"organization":{"fullName":"Children's Oncology Group","class":"NETWORK"},"briefTitle":"Study of Kidney Tumors in Younger Patients","officialTitle":"Renal Tumors Classification, Biology, and Banking Study"},"statusModule":{"statusVerifiedDate":"2024-08","overallStatus":"RECRUITING","expandedAccessInfo":{"hasExpandedAccess":false},"startDateStruct":{"date":"2006-02-27","type":"ACTUAL"},"primaryCompletionDateStruct":{"date":"2100-01-01","type":"ESTIMATED"},"studyFirstSubmitDate":"2009-05-09","studyFirstSubmitQcDate":"2009-05-09","studyFirstPostDateStruct":{"date":"2009-05-12","type":"ESTIMATED"},"lastUpdateSubmitDate":"2024-08-07","lastUpdatePostDateStruct":{"date":"2024-08-09","type":"ACTUAL"}},"sponsorCollaboratorsModule":{"responsibleParty":{"type":"SPONSOR"},"leadSponsor":{"name":"Children's Oncology Group","class":"NETWORK"},"collaborators":[{"name":"National Cancer Institute (NCI)","class":"NIH"}]},"descriptionModule":{"briefSummary":"This research trial studies kidney tumors in younger patients. Collecting and storing samples of tumor tissue, blood, and urine from patients with cancer to study in the laboratory may help doctors learn more about changes that occur in deoxyribonucleic acid (DNA) and identify biomarkers related to cancer.","detailedDescription":"PRIMARY OBJECTIVES:\n\nI. Classify patients with renal tumors by histological categorization, surgico-pathological stage, presence of metastases, age at diagnosis, tumor weight, and loss of heterozygosity for chromosomes 1p and 16q, to define eligibility for a series of therapeutic studies.\n\n(As of Amendment 8, this aim is limited to patients with institutionally classified Stage I to IV focal or diffuse anaplasia identified at initial biopsy or primary nephrectomy OR at delayed nephrectomy/second biopsy.)\n\nII. To maintain a biological samples bank to make specimens available to scientists to evaluate additional potential biological prognostic variables and for the conduct of other research by scientists.\n\nSECONDARY OBJECTIVES:\n\nI. To monitor outcome for those patients who are not eligible for a subsequent therapeutic study.\n\nII. To describe whether the pulmonary tumor burden correlates with outcome in Stage IV patients.(Completed as of Amendment 7)\n\nIII. To describe the sensitivity and specificity of abdominal computed tomography (CT) by comparison with surgical and pathologic findings for identification of local tumor spread beyond the renal capsule to adjacent muscle and organs, lymph node involvement at the renal hilum and in the retroperitoneum, preoperative tumor rupture and metastases to the liver. (Completed as of Amendment 7)\n\nIV. To compare the sensitivity and specificity of preoperative abdominal CT and MRI for the identification and differentiation of nephrogenic rests and Wilms tumor in children with multiple renal lesions. (Completed as of Amendment 7)\n\nV. To correlate the method of conception (natural versus assisted reproductive technology) with the development of Wilms tumor. (Completed as of Amendment 7)\n\nVI. To evaluate the frequency of integrase interactor 1 (INI1) mutations in renal and extrarenal malignant rhabdoid tumor of the kidney and to determine the incidence of germline and inherited versus somatic mutations to facilitate clinical correlations on the companion study AREN0321. (Completed as of Amendment 7)\n\nOUTLINE:\n\nTumor tissue, blood, and urine samples are collected for research studies, including immunohistochemistry. CT scans and MRIs are also performed. Loss of heterozygosity analyses (chromosome 1p and 16q) are performed by extraction of DNA. DNA polymorphisms are assayed by polymerase chain reaction using standard methodology. Leftover specimens are archived for future studies. (LOH and INI1 testing discontinued as of April 2014)\n\nPatients are followed up periodically for 5 years."},"conditionsModule":{"conditions":["Adult Cystic Nephroma","Anaplastic Kidney Wilms Tumor","Angiolipoma","Cellular Congenital Mesoblastic Nephroma","Classic Congenital Mesoblastic Nephroma","Clear Cell Sarcoma of the Kidney","Congenital Mesoblastic Nephroma","Cystic Partially Differentiated Kidney Nephroblastoma","Diffuse Hyperplastic Perilobar Nephroblastomatosis","Extrarenal Rhabdoid Tumor","Kidney Medullary Carcinoma","Kidney Neoplasm","Kidney Oncocytoma","Kidney Wilms Tumor","Metanephric Adenofibroma","Metanephric Adenoma","Metanephric Stromal Tumor","Metanephric Tumor","Mixed Congenital Mesoblastic Nephroma","Ossifying Renal Tumor of Infancy","Papillary Renal Cell Carcinoma","Renal Cell Carcinoma","Renal Cell Carcinoma Associated With Xp11.2 Translocations/TFE3 Gene Fusions","Rhabdoid Tumor of the Kidney","Wilms Tumor"]},"designModule":{"studyType":"OBSERVATIONAL","patientRegistry":false,"designInfo":{"observationalModel":"CASE_ONLY","timePerspective":"PROSPECTIVE"},"bioSpec":{"retention":"SAMPLES_WITH_DNA","description":"Tumor, blood, and urine samples"},"enrollmentInfo":{"count":8000,"type":"ESTIMATED"}},"armsInterventionsModule":{"armGroups":[{"label":"Ancillary-correlative (renal tumor classification, biology)","description":"Tumor tissue, blood, and urine samples are collected for research studies, including immunohistochemistry. CT scans and MRIs are also performed. Loss of heterozygosity analyses (chromosome 1p and 16q) are performed by extraction of DNA. DNA polymorphisms are assayed by polymerase chain reaction using standard methodology. Leftover specimens are archived for future studies. (LOH and INI1 testing discontinued as of April 2014)","interventionNames":["Other: Cytology Specimen Collection Procedure","Other: Laboratory Biomarker Analysis"]}],"interventions":[{"type":"OTHER","name":"Cytology Specimen Collection Procedure","description":"Correlative studies","armGroupLabels":["Ancillary-correlative (renal tumor classification, biology)"],"otherNames":["Cytologic Sampling"]},{"type":"OTHER","name":"Laboratory Biomarker Analysis","description":"Correlative studies","armGroupLabels":["Ancillary-correlative (renal tumor classification, biology)"]}]},"outcomesModule":{"primaryOutcomes":[{"measure":"Event-free survival","description":"Time from diagnosis to the earliest occurrence of disease progression (if enrolling with measurable disease), first relapse (if enrolling without measurable disease), secondary malignancy, or death. Analysis plans are specific to individual COG-approved projects and biology protocols.","timeFrame":"Up to 5 years from study enrollment"},{"measure":"Overall survival","description":"Time from diagnosis to death. Analysis plans are specific to individual COG-approved projects and biology protocols.","timeFrame":"Up to 5 years from study enrollment"}],"secondaryOutcomes":[{"measure":"Loss of heterozygosity (LOH testing discontinued as of April 2014)","description":"Evaluation of LOH (1p and 16q) status was performed in select patients with newly diagnosed favorable histology Wilms Tumor during the time that AREN0532 and AREN0533 were open to enrollment, in order to direct patients to the appropriate therapeutic protocol and study arm as well as validate the markers' prognostic value.","timeFrame":"Baseline"}]},"eligibilityModule":{"eligibilityCriteria":"Inclusion Criteria:\n\n* Patients with the first occurrence of any tumor of the kidney identified on CT scan or MRI are eligible for this study; histologic diagnosis is not required prior to enrollment but is required for all patients once on study\n* Eligible tumors include (but are not limited to):\n\n  * Nephroblastic tumors\n\n    * Nephroblastoma (Wilms' tumor) (favorable histology, anaplasia \\[diffuse, focal\\])\n    * Nephrogenic rests and nephroblastomatosis\n    * Cystic nephroma and cystic partially differentiated nephroblastoma\n    * Metanephric tumors (metanephric adenoma, metanephric adenofibroma, metanephric stromal tumor)\n  * Mesoblastic nephroma (cellular, classic, mixed)\n  * Clear cell sarcoma\n  * Rhabdoid tumor (any malignant rhabdoid tumor occurring outside the central nervous system \\[CNS\\])\n  * Renal epithelioid tumors of childhood (papillary renal cell carcinoma, medullary renal cell carcinoma, renal tumors associated with Xp11.2 translocations, oncocytic renal neoplasms after neuroblastoma)\n  * Angiolipoma\n  * Ossifying renal tumor of infancy\n* Patients with the first occurrence of the following tumors are also eligible:\n\n  * Extrarenal nephroblastoma or extrarenal neprogenic rests\n  * Malignant rhabdoid tumor occurring anywhere outside the central nervous system\n* Required specimens, reports, forms, and copies of imaging studies must be available or will become available for submission and the institution must intend on submitting them as described in the protocol procedures\n* For ALL patients, (with exception of bilateral, bilaterally predisposed, multicentric, or unilateral tumor in solitary kidney planning to enroll without biopsy\\*\\*\\*), the following submissions are required:\n\n  * A complete set of recut hematoxylin and eosin (H \\& E) slides (including from sampled lymph nodes, if patient had upfront nephrectomy)\n\n    * \\* Tissue must be from diagnosis, prior to any renal tumor directed chemotherapy or radiation (only exception is for presumed favorable histology Wilms tumor \\[FHWT\\] patients discovered to have diffuse anaplastic Wilms tumor \\[DAWT\\] at delayed nephrectomy and plan to enroll at delayed nephrectomy)\n  * Representative formalin-fixed paraffin-embedded tissue block or if a block is unavailable, 10 unstained slides from a representative block of tumor, if available.\n\n    * Tissue must be from diagnosis, prior to any renal tumor directed chemotherapy or radiation (only exception is for presumed FHWT patients discovered to have DAWT at delayed nephrectomy and plan to enroll at delayed nephrectomy)\n  * Institutional pathology report, Specimen Transmittal Form, and Pre-Treatment Pathology Checklist\n  * Copies of images and institutional reports of CT and/or MRI abdomen and pelvis, and Pre Treatment Imaging Checklist\n  * Copies of images and institutional report of chest CT for all malignant tumors\n  * Institutional surgical report(s) and Pre-Treatment Surgical Checklist\n  * CRFs: Staging Checklist and Metastatic Disease Form (if metastatic disease is noted on imaging)\n\n    * Patients with bilateral, bilaterally predisposed, multicentric, or unilateral tumor in solitary kidney planning to enroll without biopsy via imaging only - these patients will not have central review or have a risk assignment issued, but may contribute to specimen banking for future research. However, if biopsy is done, tissue must be submitted as for other renal tumors, and initial risk assignment will require pathology and surgical rapid central reviews. The Specimen Transmittal Form and Pre Treatment Pathology Checklist are also needed.\n  * Please note: if the above required items are not received within 120 days of study enrollment, the patient will be considered off study\n* All patients and/or their parents or legal guardians must sign a written informed consent\n* All institutional, Food and Drug Administration (FDA), and National Cancer Institute (NCI) requirements for human studies must be met","healthyVolunteers":false,"sex":"ALL","maximumAge":"29 Years","stdAges":["CHILD","ADULT"],"studyPopulation":"Patients newly diagnosed with kidney tumors","samplingMethod":"NON_PROBABILITY_SAMPLE"},"contactsLocationsModule":{"overallOfficials":[{"name":"Elizabeth A Mullen","affiliation":"Children's Oncology Group","role":"PRINCIPAL_INVESTIGATOR"}],"locations":[{"facility":"Children's Hospital of Alabama","status":"RECRUITING","city":"Birmingham","state":"Alabama","zip":"35233","country":"United States","contacts":[{"name":"Site Public Contact","role":"CONTACT","phone":"205-638-9285","email":"oncologyresearch@peds.uab.edu"},{"name":"Matthew A. Kutny","role":"PRINCIPAL_INVESTIGATOR"}],"geoPoint":{"lat":33.52066,"lon":-86.80249}},{"facility":"University of Alabama at Birmingham Cancer Center","status":"ACTIVE_NOT_RECRUITING","city":"Birmingham","state":"Alabama","zip":"35233","country":"United States","geoPoint":{"lat":33.52066,"lon":-86.80249}},{"facility":"USA Health Strada Patient Care Center","status":"RECRUITING","city":"Mobile","state":"Alabama","zip":"36604","country":"United States","contacts":[{"name":"Site Public Contact","role":"CONTACT","phone":"800-388-8721"},{"name":"Hamayun Imran","role":"PRINCIPAL_INVESTIGATOR"}],"geoPoint":{"lat":30.69436,"lon":-88.04305}},{"facility":"Providence Alaska Medical Center","status":"RECRUITING","city":"Anchorage","state":"Alaska","zip":"99508","country":"United States","contacts":[{"name":"Site Public Contact","role":"CONTACT","phone":"907-212-6871","email":"AKPAMC.OncologyResearchSupport@providence.org"},{"name":"Brenda J. Wittman","role":"PRINCIPAL_INVESTIGATOR"}],"geoPoint":{"lat":61.21806,"lon":-149.90028}},{"facility":"Phoenix Childrens Hospital","status":"RECRUITING","city":"Phoenix","state":"Arizona","zip":"85016","country":"United States","contacts":[{"name":"Site Public Contact","role":"CONTACT","phone":"602-546-0920"},{"name":"Jessica Boklan","role":"PRINCIPAL_INVESTIGATOR"}],"geoPoint":{"lat":33.44838,"lon":-112.07404}},{"facility":"Banner University Medical Center - Tucson","status":"RECRUITING","city":"Tucson","state":"Arizona","zip":"85719","country":"United States","contacts":[{"name":"Site Public Contact","role":"CONTACT","email":"aselegue@email.arizona.edu"},{"name":"Holly E. Pariury","role":"PRINCIPAL_INVESTIGATOR"}],"geoPoint":{"lat":32.22174,"lon":-110.92648}},{"facility":"Arkansas Children's Hospital","status":"RECRUITING","city":"Little Rock","state":"Arkansas","zip":"72202-3591","country":"United States","contacts":[{"name":"Site Public Contact","role":"CONTACT","phone":"501-364-7373"},{"name":"David L. Becton","role":"PRINCIPAL_INVESTIGATOR"}],"geoPoint":{"lat":34.74648,"lon":-92.28959}},{"facility":"University of Arkansas for Medical Sciences","status":"ACTIVE_NOT_RECRUITING","city":"Little Rock","state":"Arkansas","zip":"72205","country":"United States","geoPoint":{"lat":34.74648,"lon":-92.28959}},{"facility":"Kaiser Permanente Downey Medical Center","status":"RECRUITING","city":"Downey","state":"California","zip":"90242","country":"United States","contacts":[{"name":"Site Public Contact","role":"CONTACT","phone":"626-564-3455"},{"name":"Robert M. Cooper","role":"PRINCIPAL_INVESTIGATOR"}],"geoPoint":{"lat":33.94001,"lon":-118.13257}},{"facility":"City of Hope Comprehensive Cancer Center","status":"RECRUITING","city":"Duarte","state":"California","zip":"91010","country":"United States","contacts":[{"name":"Site Public Contact","role":"CONTACT","phone":"800-826-4673","email":"becomingapatient@coh.org"},{"name":"Anna B. Pawlowska","role":"PRINCIPAL_INVESTIGATOR"}],"geoPoint":{"lat":34.13945,"lon":-117.97729}},{"facility":"Loma Linda University Medical Center","status":"RECRUITING","city":"Loma Linda","state":"California","zip":"92354","country":"United States","contacts":[{"name":"Site Public Contact","role":"CONTACT","phone":"909-558-4050"},{"name":"Albert Kheradpour","role":"PRINCIPAL_INVESTIGATOR"}],"geoPoint":{"lat":34.04835,"lon":-117.26115}},{"facility":"Miller Children's and Women's Hospital Long Beach","status":"RECRUITING","city":"Long Beach","state":"California","zip":"90806","country":"United States","contacts":[{"name":"Site Public Contact","role":"CONTACT","phone":"562-933-5600"},{"name":"Jacqueline N. Casillas","role":"PRINCIPAL_INVESTIGATOR"}],"geoPoint":{"lat":33.76696,"lon":-118.18923}},{"facility":"Children's Hospital Los Angeles","status":"RECRUITING","city":"Los Angeles","state":"California","zip":"90027","country":"United States","contacts":[{"name":"Site Public Contact","role":"CONTACT","phone":"323-361-4110"},{"name":"Leo Mascarenhas","role":"PRINCIPAL_INVESTIGATOR"}],"geoPoint":{"lat":34.05223,"lon":-118.24368}},{"facility":"Cedars Sinai Medical Center","status":"RECRUITING","city":"Los Angeles","state":"California","zip":"90048","country":"United States","contacts":[{"name":"Site Public Contact","role":"CONTACT","phone":"310-423-8965"},{"name":"Fataneh (Fae) Majlessipour","role":"PRINCIPAL_INVESTIGATOR"}],"geoPoint":{"lat":34.05223,"lon":-118.24368}},{"facility":"Mattel Children's Hospital UCLA","status":"RECRUITING","city":"Los Angeles","state":"California","zip":"90095","country":"United States","contacts":[{"name":"Site Public Contact","role":"CONTACT","phone":"310-825-6708"},{"name":"William A. May","role":"PRINCIPAL_INVESTIGATOR"}],"geoPoint":{"lat":34.05223,"lon":-118.24368}},{"facility":"Valley Children's Hospital","status":"RECRUITING","city":"Madera","state":"California","zip":"93636","country":"United States","contacts":[{"name":"Site Public Contact","role":"CONTACT","phone":"559-353-3000","email":"Research@valleychildrens.org"},{"name":"Karen S. Fernandez","role":"PRINCIPAL_INVESTIGATOR"}],"geoPoint":{"lat":36.96134,"lon":-120.06072}},{"facility":"Children's Hospital and Research Center at Oakland","status":"RECRUITING","city":"Oakland","state":"California","zip":"94609-1809","country":"United States","contacts":[{"name":"Site Public Contact","role":"CONTACT","phone":"510-428-3324","email":"cgolden@mail.cho.org"},{"name":"Carla B. Golden","role":"PRINCIPAL_INVESTIGATOR"}],"geoPoint":{"lat":37.80437,"lon":-122.2708}},{"facility":"Kaiser Permanente-Oakland","status":"RECRUITING","city":"Oakland","state":"California","zip":"94611","country":"United States","contacts":[{"name":"Site Public Contact","role":"CONTACT","phone":"877-642-4691","email":"Kpoct@kp.org"},{"name":"Laura A. Campbell","role":"PRINCIPAL_INVESTIGATOR"}],"geoPoint":{"lat":37.80437,"lon":-122.2708}},{"facility":"Children's Hospital of Orange County","status":"RECRUITING","city":"Orange","state":"California","zip":"92868","country":"United States","contacts":[{"name":"Site Public Contact","role":"CONTACT","phone":"714-509-8646","email":"oncresearch@choc.org"},{"name":"Elyssa M. Rubin","role":"PRINCIPAL_INVESTIGATOR"}],"geoPoint":{"lat":33.78779,"lon":-117.85311}},{"facility":"Lucile Packard Children's Hospital Stanford University","status":"RECRUITING","city":"Palo Alto","state":"California","zip":"94304","country":"United States","contacts":[{"name":"Site Public Contact","role":"CONTACT","phone":"800-694-0012","email":"ccto-office@stanford.edu"},{"name":"Jay Michael S. Balagtas","role":"PRINCIPAL_INVESTIGATOR"}],"geoPoint":{"lat":37.44188,"lon":-122.14302}},{"facility":"Sutter Medical Center Sacramento","status":"RECRUITING","city":"Sacramento","state":"California","zip":"95816","country":"United States","contacts":[{"name":"Site Public Contact","role":"CONTACT","phone":"415-209-2686","email":"bernicl@sutterhealth.org"},{"name":"Yung S. Yim","role":"PRINCIPAL_INVESTIGATOR"}],"geoPoint":{"lat":38.58157,"lon":-121.4944}},{"facility":"University of California Davis Comprehensive Cancer Center","status":"RECRUITING","city":"Sacramento","state":"California","zip":"95817","country":"United States","contacts":[{"name":"Site Public Contact","role":"CONTACT","phone":"916-734-3089"},{"name":"Marcio H. Malogolowkin","role":"PRINCIPAL_INVESTIGATOR"}],"geoPoint":{"lat":38.58157,"lon":-121.4944}},{"facility":"Rady Children's Hospital - San Diego","status":"RECRUITING","city":"San Diego","state":"California","zip":"92123","country":"United States","contacts":[{"name":"Site Public Contact","role":"CONTACT","phone":"858-966-5934"},{"name":"William D. Roberts","role":"PRINCIPAL_INVESTIGATOR"}],"geoPoint":{"lat":32.71533,"lon":-117.15726}},{"facility":"Naval Medical Center -San Diego","status":"RECRUITING","city":"San Diego","state":"California","zip":"92134","country":"United States","contacts":[{"name":"Site Public Contact","role":"CONTACT","phone":"619-532-8712"},{"name":"Yoko T. Udaka","role":"PRINCIPAL_INVESTIGATOR"}],"geoPoint":{"lat":32.71533,"lon":-117.15726}},{"facility":"UCSF Medical Center-Parnassus","status":"ACTIVE_NOT_RECRUITING","city":"San Francisco","state":"California","zip":"94143","country":"United States","geoPoint":{"lat":37.77493,"lon":-122.41942}},{"facility":"UCSF Medical Center-Mission Bay","status":"RECRUITING","city":"San Francisco","state":"California","zip":"94158","country":"United States","contacts":[{"name":"Site Public Contact","role":"CONTACT","phone":"877-827-3222"},{"name":"Arun A. Rangaswami","role":"PRINCIPAL_INVESTIGATOR"}],"geoPoint":{"lat":37.77493,"lon":-122.41942}},{"facility":"Santa Barbara Cottage Hospital","status":"RECRUITING","city":"Santa Barbara","state":"California","zip":"93102","country":"United States","contacts":[{"name":"Site Public Contact","role":"CONTACT","phone":"805-682-7300"},{"name":"David J. Slomiany","role":"PRINCIPAL_INVESTIGATOR"}],"geoPoint":{"lat":34.42083,"lon":-119.69819}},{"facility":"Lundquist Institute for Biomedical Innovation at Harbor-UCLA Medical Center","status":"RECRUITING","city":"Torrance","state":"California","zip":"90502","country":"United States","contacts":[{"name":"Site Public Contact","role":"CONTACT","phone":"310-222-3624","email":"irb@lundquist.org"},{"name":"Eduard H. Panosyan","role":"PRINCIPAL_INVESTIGATOR"}],"geoPoint":{"lat":33.83585,"lon":-118.34063}},{"facility":"Children's Hospital Colorado","status":"RECRUITING","city":"Aurora","state":"Colorado","zip":"80045","country":"United States","contacts":[{"name":"Site Public Contact","role":"CONTACT","phone":"303-764-5056","email":"josh.b.gordon@nsmtp.kp.org"},{"name":"Timothy P. Garrington","role":"PRINCIPAL_INVESTIGATOR"}],"geoPoint":{"lat":39.72943,"lon":-104.83192}},{"facility":"Rocky Mountain Hospital for Children-Presbyterian Saint Luke's Medical Center","status":"RECRUITING","city":"Denver","state":"Colorado","zip":"80218","country":"United States","contacts":[{"name":"Site Public Contact","role":"CONTACT","phone":"303-839-6000"},{"name":"Jennifer J. Clark","role":"PRINCIPAL_INVESTIGATOR"}],"geoPoint":{"lat":39.73915,"lon":-104.9847}},{"facility":"Connecticut Children's Medical Center","status":"RECRUITING","city":"Hartford","state":"Connecticut","zip":"06106","country":"United States","contacts":[{"name":"Site Public Contact","role":"CONTACT","phone":"860-545-9981"},{"name":"Michael S. Isakoff","role":"PRINCIPAL_INVESTIGATOR"}],"geoPoint":{"lat":41.76371,"lon":-72.68509}},{"facility":"Yale University","status":"RECRUITING","city":"New Haven","state":"Connecticut","zip":"06520","country":"United States","contacts":[{"name":"Site Public Contact","role":"CONTACT","phone":"203-785-5702","email":"canceranswers@yale.edu"},{"name":"Nina S. Kadan-Lottick","role":"PRINCIPAL_INVESTIGATOR"}],"geoPoint":{"lat":41.30815,"lon":-72.92816}},{"facility":"Alfred I duPont Hospital for Children","status":"RECRUITING","city":"Wilmington","state":"Delaware","zip":"19803","country":"United States","contacts":[{"name":"Site Public Contact","role":"CONTACT","phone":"302-651-6884","email":"dperry@nemours.org"},{"name":"Ramamoorthy Nagasubramanian","role":"PRINCIPAL_INVESTIGATOR"}],"geoPoint":{"lat":39.74595,"lon":-75.54659}},{"facility":"MedStar Georgetown University Hospital","status":"RECRUITING","city":"Washington","state":"District of Columbia","zip":"20007","country":"United States","contacts":[{"name":"Site Public Contact","role":"CONTACT","phone":"202-444-2223"},{"name":"Jeffrey A. Toretsky","role":"PRINCIPAL_INVESTIGATOR"}],"geoPoint":{"lat":38.89511,"lon":-77.03637}},{"facility":"Children's National Medical Center","status":"RECRUITING","city":"Washington","state":"District of Columbia","zip":"20010","country":"United States","contacts":[{"name":"Site Public Contact","role":"CONTACT","phone":"202-884-2549"},{"name":"Jeffrey S. Dome","role":"PRINCIPAL_INVESTIGATOR"}],"geoPoint":{"lat":38.89511,"lon":-77.03637}},{"facility":"Broward Health Medical Center","status":"RECRUITING","city":"Fort Lauderdale","state":"Florida","zip":"33316","country":"United States","contacts":[{"name":"Site Public Contact","role":"CONTACT","phone":"954-355-5346"},{"name":"Hector M. Rodriguez-Cortes","role":"PRINCIPAL_INVESTIGATOR"}],"geoPoint":{"lat":26.12231,"lon":-80.14338}},{"facility":"Lee Memorial Health System","status":"ACTIVE_NOT_RECRUITING","city":"Fort Myers","state":"Florida","zip":"33901","country":"United States","geoPoint":{"lat":26.62168,"lon":-81.84059}},{"facility":"Golisano Children's Hospital of Southwest Florida","status":"RECRUITING","city":"Fort Myers","state":"Florida","zip":"33908","country":"United States","contacts":[{"name":"Site Public Contact","role":"CONTACT","phone":"239-343-5333","email":"molly.arnstrom@leehealth.org"},{"name":"Emad K. Salman","role":"PRINCIPAL_INVESTIGATOR"}],"geoPoint":{"lat":26.62168,"lon":-81.84059}},{"facility":"University of Florida Health Science Center - Gainesville","status":"SUSPENDED","city":"Gainesville","state":"Florida","zip":"32610","country":"United States","geoPoint":{"lat":29.65163,"lon":-82.32483}},{"facility":"Memorial Regional Hospital/Joe DiMaggio Children's Hospital","status":"RECRUITING","city":"Hollywood","state":"Florida","zip":"33021","country":"United States","contacts":[{"name":"Site Public Contact","role":"CONTACT","phone":"954-265-1847","email":"OHR@mhs.net"},{"name":"Iftikhar Hanif","role":"PRINCIPAL_INVESTIGATOR"}],"geoPoint":{"lat":26.0112,"lon":-80.14949}},{"facility":"Nemours Children's Clinic-Jacksonville","status":"RECRUITING","city":"Jacksonville","state":"Florida","zip":"32207","country":"United States","contacts":[{"name":"Site Public Contact","role":"CONTACT","phone":"904-697-3529"},{"name":"Ramamoorthy Nagasubramanian","role":"PRINCIPAL_INVESTIGATOR"}],"geoPoint":{"lat":30.33218,"lon":-81.65565}},{"facility":"University of Miami Miller School of Medicine-Sylvester Cancer Center","status":"RECRUITING","city":"Miami","state":"Florida","zip":"33136","country":"United States","contacts":[{"name":"Site Public Contact","role":"CONTACT","phone":"305-243-2647"},{"name":"Julio C. Barredo","role":"PRINCIPAL_INVESTIGATOR"}],"geoPoint":{"lat":25.77427,"lon":-80.19366}},{"facility":"Nicklaus Children's Hospital","status":"RECRUITING","city":"Miami","state":"Florida","zip":"33155","country":"United States","contacts":[{"name":"Site Public Contact","role":"CONTACT","phone":"888-624-2778"},{"name":"Enrique A. Escalon","role":"PRINCIPAL_INVESTIGATOR"}],"geoPoint":{"lat":25.77427,"lon":-80.19366}},{"facility":"Miami Cancer Institute","status":"RECRUITING","city":"Miami","state":"Florida","zip":"33176","country":"United States","contacts":[{"name":"Site Public Contact","role":"CONTACT","phone":"786-596-2000"},{"name":"Doured Daghistani","role":"PRINCIPAL_INVESTIGATOR"}],"geoPoint":{"lat":25.77427,"lon":-80.19366}},{"facility":"AdventHealth Orlando","status":"RECRUITING","city":"Orlando","state":"Florida","zip":"32803","country":"United States","contacts":[{"name":"Site Public Contact","role":"CONTACT","phone":"407-303-2090","email":"FH.Cancer.Research@flhosp.org"},{"name":"Fouad M. Hajjar","role":"PRINCIPAL_INVESTIGATOR"}],"geoPoint":{"lat":28.53834,"lon":-81.37924}},{"facility":"Arnold Palmer Hospital for Children","status":"RECRUITING","city":"Orlando","state":"Florida","zip":"32806","country":"United States","contacts":[{"name":"Site Public Contact","role":"CONTACT","phone":"321-841-2008","email":"melissa.leffin@orlandohealth.com"},{"name":"Amy A. Smith","role":"PRINCIPAL_INVESTIGATOR"}],"geoPoint":{"lat":28.53834,"lon":-81.37924}},{"facility":"Nemours Children's Clinic - Orlando","status":"ACTIVE_NOT_RECRUITING","city":"Orlando","state":"Florida","zip":"32806","country":"United States","geoPoint":{"lat":28.53834,"lon":-81.37924}},{"facility":"UF Cancer Center at Orlando Health","status":"ACTIVE_NOT_RECRUITING","city":"Orlando","state":"Florida","zip":"32806","country":"United States","geoPoint":{"lat":28.53834,"lon":-81.37924}},{"facility":"Nemours Children's Hospital","status":"RECRUITING","city":"Orlando","state":"Florida","zip":"32827","country":"United States","contacts":[{"name":"Site Public Contact","role":"CONTACT","phone":"407-650-7715"},{"name":"Ramamoorthy Nagasubramanian","role":"PRINCIPAL_INVESTIGATOR"}],"geoPoint":{"lat":28.53834,"lon":-81.37924}},{"facility":"Nemours Children's Clinic - Pensacola","status":"ACTIVE_NOT_RECRUITING","city":"Pensacola","state":"Florida","zip":"32504","country":"United States","geoPoint":{"lat":30.42131,"lon":-87.21691}},{"facility":"Johns Hopkins All Children's Hospital","status":"RECRUITING","city":"Saint Petersburg","state":"Florida","zip":"33701","country":"United States","contacts":[{"name":"Site Public Contact","role":"CONTACT","phone":"727-767-4784","email":"Ashley.Repp@jhmi.edu"},{"name":"Jonathan L. Metts","role":"PRINCIPAL_INVESTIGATOR"}],"geoPoint":{"lat":27.77086,"lon":-82.67927}},{"facility":"Tampa General Hospital","status":"ACTIVE_NOT_RECRUITING","city":"Tampa","state":"Florida","zip":"33606","country":"United States","geoPoint":{"lat":27.94752,"lon":-82.45843}},{"facility":"Saint Joseph's Hospital/Children's Hospital-Tampa","status":"SUSPENDED","city":"Tampa","state":"Florida","zip":"33607","country":"United States","geoPoint":{"lat":27.94752,"lon":-82.45843}},{"facility":"Saint Mary's Hospital","status":"RECRUITING","city":"West Palm Beach","state":"Florida","zip":"33407","country":"United States","contacts":[{"name":"Site Public Contact","role":"CONTACT","phone":"561-881-2815"},{"name":"Narayana Gowda","role":"PRINCIPAL_INVESTIGATOR"}],"geoPoint":{"lat":26.71534,"lon":-80.05337}},{"facility":"Children's Healthcare of Atlanta - Egleston","status":"RECRUITING","city":"Atlanta","state":"Georgia","zip":"30322","country":"United States","contacts":[{"name":"Site Public Contact","role":"CONTACT","phone":"404-785-2025","email":"Leann.Schilling@choa.org"},{"name":"Bradley A. George","role":"PRINCIPAL_INVESTIGATOR"}],"geoPoint":{"lat":33.749,"lon":-84.38798}},{"facility":"Augusta University Medical Center","status":"RECRUITING","city":"Augusta","state":"Georgia","zip":"30912","country":"United States","contacts":[{"name":"Site Public Contact","role":"CONTACT","phone":"706-721-2388","email":"ga_cares@augusta.edu"},{"name":"Colleen H. McDonough","role":"PRINCIPAL_INVESTIGATOR"}],"geoPoint":{"lat":33.47097,"lon":-81.97484}},{"facility":"Medical Center of Central Georgia","status":"RECRUITING","city":"Macon","state":"Georgia","zip":"31201","country":"United States","contacts":[{"name":"Site Public Contact","role":"CONTACT","phone":"478-633-2152","email":"weatherall.andrew@navicenthealth.org"},{"name":"Sushmita Nair","role":"PRINCIPAL_INVESTIGATOR"}],"geoPoint":{"lat":32.84069,"lon":-83.6324}},{"facility":"Memorial Health University Medical Center","status":"RECRUITING","city":"Savannah","state":"Georgia","zip":"31404","country":"United States","contacts":[{"name":"Site Public Contact","role":"CONTACT","phone":"912-350-7887","email":"clayter1@memorialhealth.com"},{"name":"Andrew L. Pendleton","role":"PRINCIPAL_INVESTIGATOR"}],"geoPoint":{"lat":32.08354,"lon":-81.09983}},{"facility":"University of Hawaii Cancer Center","status":"ACTIVE_NOT_RECRUITING","city":"Honolulu","state":"Hawaii","zip":"96813","country":"United States","geoPoint":{"lat":21.30694,"lon":-157.85833}},{"facility":"Kapiolani Medical Center for Women and Children","status":"RECRUITING","city":"Honolulu","state":"Hawaii","zip":"96826","country":"United States","contacts":[{"name":"Site Public Contact","role":"CONTACT","phone":"808-983-6090"},{"name":"Wade T. Kyono","role":"PRINCIPAL_INVESTIGATOR"}],"geoPoint":{"lat":21.30694,"lon":-157.85833}},{"facility":"Tripler Army Medical Center","status":"ACTIVE_NOT_RECRUITING","city":"Honolulu","state":"Hawaii","zip":"96859","country":"United States","geoPoint":{"lat":21.30694,"lon":-157.85833}},{"facility":"Saint Luke's Mountain States Tumor Institute","status":"RECRUITING","city":"Boise","state":"Idaho","zip":"83712","country":"United States","contacts":[{"name":"Site Public Contact","role":"CONTACT","phone":"208-381-2774","email":"eslinget@slhs.org"},{"name":"Eugenia Chang","role":"PRINCIPAL_INVESTIGATOR"}],"geoPoint":{"lat":43.6135,"lon":-116.20345}},{"facility":"Lurie Children's Hospital-Chicago","status":"RECRUITING","city":"Chicago","state":"Illinois","zip":"60611","country":"United States","contacts":[{"name":"Site Public Contact","role":"CONTACT","phone":"773-880-4562"},{"name":"Amy L. Walz","role":"PRINCIPAL_INVESTIGATOR"}],"geoPoint":{"lat":41.85003,"lon":-87.65005}},{"facility":"University of Illinois","status":"RECRUITING","city":"Chicago","state":"Illinois","zip":"60612","country":"United States","contacts":[{"name":"Site Public Contact","role":"CONTACT","phone":"312-355-3046"},{"name":"Mary L. Schmidt","role":"PRINCIPAL_INVESTIGATOR"}],"geoPoint":{"lat":41.85003,"lon":-87.65005}},{"facility":"University of Chicago Comprehensive Cancer Center","status":"SUSPENDED","city":"Chicago","state":"Illinois","zip":"60637","country":"United States","geoPoint":{"lat":41.85003,"lon":-87.65005}},{"facility":"Loyola University Medical Center","status":"SUSPENDED","city":"Maywood","state":"Illinois","zip":"60153","country":"United States","geoPoint":{"lat":41.8792,"lon":-87.84312}},{"facility":"Advocate Children's Hospital-Oak Lawn","status":"RECRUITING","city":"Oak Lawn","state":"Illinois","zip":"60453","country":"United States","contacts":[{"name":"Site Public Contact","role":"CONTACT","phone":"847-723-7570"},{"name":"Rebecca E. McFall","role":"PRINCIPAL_INVESTIGATOR"}],"geoPoint":{"lat":41.71087,"lon":-87.75811}},{"facility":"Advocate Children's Hospital-Park Ridge","status":"RECRUITING","city":"Park Ridge","state":"Illinois","zip":"60068","country":"United States","contacts":[{"name":"Site Public Contact","role":"CONTACT","email":"helpdesk@childrensoncologygroup.org"},{"name":"Rebecca E. McFall","role":"PRINCIPAL_INVESTIGATOR"}],"geoPoint":{"lat":42.01114,"lon":-87.84062}},{"facility":"Advocate Lutheran General Hospital","status":"ACTIVE_NOT_RECRUITING","city":"Park Ridge","state":"Illinois","zip":"60068","country":"United States","geoPoint":{"lat":42.01114,"lon":-87.84062}},{"facility":"Saint Jude Midwest Affiliate","status":"RECRUITING","city":"Peoria","state":"Illinois","zip":"61637","country":"United States","contacts":[{"name":"Site Public Contact","role":"CONTACT","phone":"888-226-4343"},{"name":"Jaime M. Libes","role":"PRINCIPAL_INVESTIGATOR"}],"geoPoint":{"lat":40.69365,"lon":-89.58899}},{"facility":"Southern Illinois University School of Medicine","status":"RECRUITING","city":"Springfield","state":"Illinois","zip":"62702","country":"United States","contacts":[{"name":"Site Public Contact","role":"CONTACT","phone":"217-545-7929"},{"name":"Gregory P. Brandt","role":"PRINCIPAL_INVESTIGATOR"}],"geoPoint":{"lat":39.80172,"lon":-89.64371}},{"facility":"Riley Hospital for Children","status":"SUSPENDED","city":"Indianapolis","state":"Indiana","zip":"46202","country":"United States","geoPoint":{"lat":39.76838,"lon":-86.15804}},{"facility":"Saint Vincent Hospital and Health Care Center","status":"SUSPENDED","city":"Indianapolis","state":"Indiana","zip":"46260","country":"United States","geoPoint":{"lat":39.76838,"lon":-86.15804}},{"facility":"Blank Children's Hospital","status":"RECRUITING","city":"Des Moines","state":"Iowa","zip":"50309","country":"United States","contacts":[{"name":"Site Public Contact","role":"CONTACT","phone":"515-241-8912","email":"samantha.mallory@unitypoint.org"},{"name":"Samantha L. Mallory","role":"PRINCIPAL_INVESTIGATOR"}],"geoPoint":{"lat":41.60054,"lon":-93.60911}},{"facility":"University of Iowa/Holden Comprehensive Cancer Center","status":"RECRUITING","city":"Iowa City","state":"Iowa","zip":"52242","country":"United States","contacts":[{"name":"Site Public Contact","role":"CONTACT","phone":"800-237-1225"},{"name":"Mariko Sato","role":"PRINCIPAL_INVESTIGATOR"}],"geoPoint":{"lat":41.66113,"lon":-91.53017}},{"facility":"University of Kansas Cancer Center","status":"COMPLETED","city":"Kansas City","state":"Kansas","zip":"66160","country":"United States","geoPoint":{"lat":39.11417,"lon":-94.62746}},{"facility":"University of Kentucky/Markey Cancer Center","status":"SUSPENDED","city":"Lexington","state":"Kentucky","zip":"40536","country":"United States","geoPoint":{"lat":37.98869,"lon":-84.47772}},{"facility":"Norton Children's Hospital","status":"RECRUITING","city":"Louisville","state":"Kentucky","zip":"40202","country":"United States","contacts":[{"name":"Site Public Contact","role":"CONTACT","phone":"502-629-5500","email":"CancerResource@nortonhealthcare.org"},{"name":"Ashok B. Raj","role":"PRINCIPAL_INVESTIGATOR"}],"geoPoint":{"lat":38.25424,"lon":-85.75941}},{"facility":"Tulane University Health Sciences Center","status":"ACTIVE_NOT_RECRUITING","city":"New Orleans","state":"Louisiana","zip":"70112","country":"United States","geoPoint":{"lat":29.95465,"lon":-90.07507}},{"facility":"Children's Hospital New Orleans","status":"RECRUITING","city":"New Orleans","state":"Louisiana","zip":"70118","country":"United States","contacts":[{"name":"Site Public Contact","role":"CONTACT","email":"CHResearch@lcmchealth.org"},{"name":"Lolie C. Yu","role":"PRINCIPAL_INVESTIGATOR"}],"geoPoint":{"lat":29.95465,"lon":-90.07507}},{"facility":"Ochsner Medical Center Jefferson","status":"RECRUITING","city":"New Orleans","state":"Louisiana","zip":"70121","country":"United States","contacts":[{"name":"Site Public Contact","role":"CONTACT","phone":"504-703-8712","email":"Gregory.Johnstone@ochsner.org"},{"name":"Craig Lotterman","role":"PRINCIPAL_INVESTIGATOR"}],"geoPoint":{"lat":29.95465,"lon":-90.07507}},{"facility":"Eastern Maine Medical Center","status":"RECRUITING","city":"Bangor","state":"Maine","zip":"04401","country":"United States","contacts":[{"name":"Site Public Contact","role":"CONTACT","phone":"207-973-4274"},{"name":"Nadine P. SantaCruz","role":"PRINCIPAL_INVESTIGATOR"}],"geoPoint":{"lat":44.80118,"lon":-68.77781}},{"facility":"Maine Children's Cancer Program","status":"RECRUITING","city":"Scarborough","state":"Maine","zip":"04074","country":"United States","contacts":[{"name":"Site Public Contact","role":"CONTACT","phone":"207-396-7581","email":"sverwys@mmc.org"},{"name":"Eric C. Larsen","role":"PRINCIPAL_INVESTIGATOR"}],"geoPoint":{"lat":43.57814,"lon":-70.32172}},{"facility":"University of Maryland/Greenebaum Cancer Center","status":"RECRUITING","city":"Baltimore","state":"Maryland","zip":"21201","country":"United States","contacts":[{"name":"Site Public Contact","role":"CONTACT","phone":"800-888-8823"},{"name":"Teresa A. York","role":"PRINCIPAL_INVESTIGATOR"}],"geoPoint":{"lat":39.29038,"lon":-76.61219}},{"facility":"Sinai Hospital of Baltimore","status":"RECRUITING","city":"Baltimore","state":"Maryland","zip":"21215","country":"United States","contacts":[{"name":"Site Public Contact","role":"CONTACT","phone":"410-601-6120","email":"pridgely@lifebridgehealth.org"},{"name":"Jason M. Fixler","role":"PRINCIPAL_INVESTIGATOR"}],"geoPoint":{"lat":39.29038,"lon":-76.61219}},{"facility":"Johns Hopkins University/Sidney Kimmel Cancer Center","status":"RECRUITING","city":"Baltimore","state":"Maryland","zip":"21287","country":"United States","contacts":[{"name":"Site Public Contact","role":"CONTACT","phone":"410-955-8804","email":"jhcccro@jhmi.edu"},{"name":"Alan D. Friedman","role":"PRINCIPAL_INVESTIGATOR"}],"geoPoint":{"lat":39.29038,"lon":-76.61219}},{"facility":"Walter Reed National Military Medical Center","status":"RECRUITING","city":"Bethesda","state":"Maryland","zip":"20889-5600","country":"United States","contacts":[{"name":"Site Public Contact","role":"CONTACT","phone":"301-319-2100"},{"name":"Kenneth Lieuw","role":"PRINCIPAL_INVESTIGATOR"}],"geoPoint":{"lat":38.98067,"lon":-77.10026}},{"facility":"Floating Hospital for Children at Tufts Medical Center","status":"RECRUITING","city":"Boston","state":"Massachusetts","zip":"02111","country":"United States","contacts":[{"name":"Site Public Contact","role":"CONTACT","phone":"617-636-5535"},{"name":"Jason Law","role":"PRINCIPAL_INVESTIGATOR"}],"geoPoint":{"lat":42.35843,"lon":-71.05977}},{"facility":"Massachusetts General Hospital Cancer Center","status":"RECRUITING","city":"Boston","state":"Massachusetts","zip":"02114","country":"United States","contacts":[{"name":"Site Public Contact","role":"CONTACT","phone":"877-726-5130"},{"name":"Elizabeth A. Mullen","role":"PRINCIPAL_INVESTIGATOR"}],"geoPoint":{"lat":42.35843,"lon":-71.05977}},{"facility":"Dana-Farber Cancer Institute","status":"RECRUITING","city":"Boston","state":"Massachusetts","zip":"02215","country":"United States","contacts":[{"name":"Site Public Contact","role":"CONTACT","phone":"877-442-3324"},{"name":"Elizabeth A. Mullen","role":"PRINCIPAL_INVESTIGATOR"}],"geoPoint":{"lat":42.35843,"lon":-71.05977}},{"facility":"Baystate Medical Center","status":"SUSPENDED","city":"Springfield","state":"Massachusetts","zip":"01199","country":"United States","geoPoint":{"lat":42.10148,"lon":-72.58981}},{"facility":"UMass Memorial Medical Center - University Campus","status":"RECRUITING","city":"Worcester","state":"Massachusetts","zip":"01655","country":"United States","contacts":[{"name":"Site Public Contact","role":"CONTACT","phone":"508-856-3216","email":"cancer.research@umassmed.edu"},{"name":"Stefanie R. Lowas","role":"PRINCIPAL_INVESTIGATOR"}],"geoPoint":{"lat":42.26259,"lon":-71.80229}},{"facility":"C S Mott Children's Hospital","status":"RECRUITING","city":"Ann Arbor","state":"Michigan","zip":"48109","country":"United States","contacts":[{"name":"Site Public Contact","role":"CONTACT","phone":"800-865-1125"},{"name":"Rajen Mody","role":"PRINCIPAL_INVESTIGATOR"}],"geoPoint":{"lat":42.27756,"lon":-83.74088}},{"facility":"Wayne State University/Karmanos Cancer Institute","status":"RECRUITING","city":"Detroit","state":"Michigan","zip":"48201","country":"United States","contacts":[{"name":"Site Public Contact","role":"CONTACT","phone":"313-576-9790","email":"ctoadmin@karmanos.org"},{"name":"Alissa M. Martin","role":"PRINCIPAL_INVESTIGATOR"}],"geoPoint":{"lat":42.33143,"lon":-83.04575}},{"facility":"Ascension Saint John Hospital","status":"RECRUITING","city":"Detroit","state":"Michigan","zip":"48236","country":"United States","contacts":[{"name":"Site Public Contact","role":"CONTACT","phone":"734-712-3671","email":"stephanie.couch@stjoeshealth.org"},{"name":"Adonis N. Lorenzana","role":"PRINCIPAL_INVESTIGATOR"}],"geoPoint":{"lat":42.33143,"lon":-83.04575}},{"facility":"Michigan State University Clinical Center","status":"RECRUITING","city":"East Lansing","state":"Michigan","zip":"48824-7016","country":"United States","contacts":[{"name":"Site Public Contact","role":"CONTACT","phone":"517-975-9547"},{"name":"Aghiad Chamdin","role":"PRINCIPAL_INVESTIGATOR"}],"geoPoint":{"lat":42.73698,"lon":-84.48387}},{"facility":"Hurley Medical Center","status":"ACTIVE_NOT_RECRUITING","city":"Flint","state":"Michigan","zip":"48503","country":"United States","geoPoint":{"lat":43.01253,"lon":-83.68746}},{"facility":"Helen DeVos Children's Hospital at Spectrum Health","status":"SUSPENDED","city":"Grand Rapids","state":"Michigan","zip":"49503","country":"United States","geoPoint":{"lat":42.96336,"lon":-85.66809}},{"facility":"Bronson Methodist Hospital","status":"RECRUITING","city":"Kalamazoo","state":"Michigan","zip":"49007","country":"United States","contacts":[{"name":"Site Public Contact","role":"CONTACT","phone":"616-391-1230","email":"crcwm-regulatory@crcwm.org"},{"name":"Katharina E. Elliott","role":"PRINCIPAL_INVESTIGATOR"}],"geoPoint":{"lat":42.29171,"lon":-85.58723}},{"facility":"Kalamazoo Center for Medical Studies","status":"ACTIVE_NOT_RECRUITING","city":"Kalamazoo","state":"Michigan","zip":"49008","country":"United States","geoPoint":{"lat":42.29171,"lon":-85.58723}},{"facility":"Beaumont Children's Hospital-Royal Oak","status":"RECRUITING","city":"Royal Oak","state":"Michigan","zip":"48073","country":"United States","contacts":[{"name":"Site Public Contact","role":"CONTACT","phone":"248-551-7695"},{"name":"Laura K. Gowans","role":"PRINCIPAL_INVESTIGATOR"}],"geoPoint":{"lat":42.48948,"lon":-83.14465}},{"facility":"William Beaumont Hospital-Royal Oak","status":"ACTIVE_NOT_RECRUITING","city":"Royal Oak","state":"Michigan","zip":"48073","country":"United States","geoPoint":{"lat":42.48948,"lon":-83.14465}},{"facility":"Children's Hospitals and Clinics of Minnesota - Minneapolis","status":"SUSPENDED","city":"Minneapolis","state":"Minnesota","zip":"55404","country":"United States","geoPoint":{"lat":44.97997,"lon":-93.26384}},{"facility":"University of Minnesota/Masonic Cancer Center","status":"RECRUITING","city":"Minneapolis","state":"Minnesota","zip":"55455","country":"United States","contacts":[{"name":"Site Public Contact","role":"CONTACT","phone":"612-624-2620"},{"name":"Emily G. Greengard","role":"PRINCIPAL_INVESTIGATOR"}],"geoPoint":{"lat":44.97997,"lon":-93.26384}},{"facility":"Mayo Clinic in Rochester","status":"RECRUITING","city":"Rochester","state":"Minnesota","zip":"55905","country":"United States","contacts":[{"name":"Site Public Contact","role":"CONTACT","phone":"855-776-0015"},{"name":"Carola A. Arndt","role":"PRINCIPAL_INVESTIGATOR"}],"geoPoint":{"lat":44.02163,"lon":-92.4699}},{"facility":"University of Mississippi Medical Center","status":"SUSPENDED","city":"Jackson","state":"Mississippi","zip":"39216","country":"United States","geoPoint":{"lat":32.29876,"lon":-90.18481}},{"facility":"Columbia Regional","status":"RECRUITING","city":"Columbia","state":"Missouri","zip":"65201","country":"United States","contacts":[{"name":"Site Public Contact","role":"CONTACT","email":"helpdesk@childrensoncologygroup.org"},{"name":"Barbara A. Gruner","role":"PRINCIPAL_INVESTIGATOR"}],"geoPoint":{"lat":38.95171,"lon":-92.33407}},{"facility":"Children's Mercy Hospitals and Clinics","status":"RECRUITING","city":"Kansas City","state":"Missouri","zip":"64108","country":"United States","contacts":[{"name":"Site Public Contact","role":"CONTACT","phone":"816-302-6808","email":"rryan@cmh.edu"},{"name":"Keith J. August","role":"PRINCIPAL_INVESTIGATOR"}],"geoPoint":{"lat":39.09973,"lon":-94.57857}},{"facility":"Cardinal Glennon Children's Medical Center","status":"RECRUITING","city":"Saint Louis","state":"Missouri","zip":"63104","country":"United States","contacts":[{"name":"Site Public Contact","role":"CONTACT","phone":"314-268-4000"},{"name":"William S. Ferguson","role":"PRINCIPAL_INVESTIGATOR"}],"geoPoint":{"lat":38.62727,"lon":-90.19789}},{"facility":"Washington University School of Medicine","status":"RECRUITING","city":"Saint Louis","state":"Missouri","zip":"63110","country":"United States","contacts":[{"name":"Site Public Contact","role":"CONTACT","phone":"800-600-3606","email":"info@siteman.wustl.edu"},{"name":"David B. Wilson","role":"PRINCIPAL_INVESTIGATOR"}],"geoPoint":{"lat":38.62727,"lon":-90.19789}},{"facility":"Mercy Hospital Saint Louis","status":"RECRUITING","city":"Saint Louis","state":"Missouri","zip":"63141","country":"United States","contacts":[{"name":"Site Public Contact","role":"CONTACT","phone":"314-251-7066"},{"name":"Robin D. Hanson","role":"PRINCIPAL_INVESTIGATOR"}],"geoPoint":{"lat":38.62727,"lon":-90.19789}},{"facility":"Children's Hospital and Medical Center of Omaha","status":"RECRUITING","city":"Omaha","state":"Nebraska","zip":"68114","country":"United States","contacts":[{"name":"Site Public Contact","role":"CONTACT","phone":"402-955-3949"},{"name":"Minnie Abromowitch","role":"PRINCIPAL_INVESTIGATOR"}],"geoPoint":{"lat":41.25626,"lon":-95.94043}},{"facility":"University of Nebraska Medical Center","status":"RECRUITING","city":"Omaha","state":"Nebraska","zip":"68198","country":"United States","contacts":[{"name":"Site Public Contact","role":"CONTACT","phone":"402-559-6941","email":"unmcrsa@unmc.edu"},{"name":"Minnie Abromowitch","role":"PRINCIPAL_INVESTIGATOR"}],"geoPoint":{"lat":41.25626,"lon":-95.94043}},{"facility":"University Medical Center of Southern Nevada","status":"RECRUITING","city":"Las Vegas","state":"Nevada","zip":"89102","country":"United States","contacts":[{"name":"Site Public Contact","role":"CONTACT","phone":"702-384-0013","email":"research@sncrf.org"},{"name":"Alan K. Ikeda","role":"PRINCIPAL_INVESTIGATOR"}],"geoPoint":{"lat":36.17497,"lon":-115.13722}},{"facility":"Sunrise Hospital and Medical Center","status":"RECRUITING","city":"Las Vegas","state":"Nevada","zip":"89109","country":"United States","contacts":[{"name":"Site Public Contact","role":"CONTACT","phone":"702-384-0013","email":"research@sncrf.org"},{"name":"Alan K. Ikeda","role":"PRINCIPAL_INVESTIGATOR"}],"geoPoint":{"lat":36.17497,"lon":-115.13722}},{"facility":"Alliance for Childhood Diseases/Cure 4 the Kids Foundation","status":"RECRUITING","city":"Las Vegas","state":"Nevada","zip":"89135","country":"United States","contacts":[{"name":"Site Public Contact","role":"CONTACT","phone":"702-384-0013","email":"research@sncrf.org"},{"name":"Alan K. Ikeda","role":"PRINCIPAL_INVESTIGATOR"}],"geoPoint":{"lat":36.17497,"lon":-115.13722}},{"facility":"Summerlin Hospital Medical Center","status":"SUSPENDED","city":"Las Vegas","state":"Nevada","zip":"89144","country":"United States","geoPoint":{"lat":36.17497,"lon":-115.13722}},{"facility":"Dartmouth Hitchcock Medical Center","status":"RECRUITING","city":"Lebanon","state":"New Hampshire","zip":"03756","country":"United States","contacts":[{"name":"Site Public Contact","role":"CONTACT","phone":"800-639-6918","email":"cancer.research.nurse@dartmouth.edu"},{"name":"Julie Kim","role":"PRINCIPAL_INVESTIGATOR"}],"geoPoint":{"lat":43.64229,"lon":-72.25176}},{"facility":"Hackensack University Medical Center","status":"RECRUITING","city":"Hackensack","state":"New Jersey","zip":"07601","country":"United States","contacts":[{"name":"Site Public Contact","role":"CONTACT","phone":"201-996-2879"},{"name":"Burton E. Appel","role":"PRINCIPAL_INVESTIGATOR"}],"geoPoint":{"lat":40.88593,"lon":-74.04347}},{"facility":"Saint Barnabas Medical Center","status":"ACTIVE_NOT_RECRUITING","city":"Livingston","state":"New Jersey","zip":"07039","country":"United States","geoPoint":{"lat":40.79593,"lon":-74.31487}},{"facility":"Morristown Medical Center","status":"RECRUITING","city":"Morristown","state":"New Jersey","zip":"07960","country":"United States","contacts":[{"name":"Site Public Contact","role":"CONTACT","phone":"973-971-5900"},{"name":"John J. Gregory","role":"PRINCIPAL_INVESTIGATOR"}],"geoPoint":{"lat":40.79677,"lon":-74.48154}},{"facility":"Saint Peter's University Hospital","status":"RECRUITING","city":"New Brunswick","state":"New Jersey","zip":"08901","country":"United States","contacts":[{"name":"Site Public Contact","role":"CONTACT","phone":"732-745-8600","phoneExt":"6163","email":"kcovert@saintpetersuh.com"},{"name":"Nibal A. Zaghloul","role":"PRINCIPAL_INVESTIGATOR"}],"geoPoint":{"lat":40.48622,"lon":-74.45182}},{"facility":"Rutgers Cancer Institute of New Jersey-Robert Wood Johnson University Hospital","status":"RECRUITING","city":"New Brunswick","state":"New Jersey","zip":"08903","country":"United States","contacts":[{"name":"Site Public Contact","role":"CONTACT","phone":"732-235-8675"},{"name":"Richard A. Drachtman","role":"PRINCIPAL_INVESTIGATOR"}],"geoPoint":{"lat":40.48622,"lon":-74.45182}},{"facility":"Newark Beth Israel Medical Center","status":"SUSPENDED","city":"Newark","state":"New Jersey","zip":"07112","country":"United States","geoPoint":{"lat":40.73566,"lon":-74.17237}},{"facility":"Saint Joseph's Regional Medical Center","status":"RECRUITING","city":"Paterson","state":"New Jersey","zip":"07503","country":"United States","contacts":[{"name":"Site Public Contact","role":"CONTACT","phone":"973-754-2207","email":"HallL@sjhmc.org"},{"name":"Alissa Kahn","role":"PRINCIPAL_INVESTIGATOR"}],"geoPoint":{"lat":40.91677,"lon":-74.17181}},{"facility":"Overlook Hospital","status":"ACTIVE_NOT_RECRUITING","city":"Summit","state":"New Jersey","zip":"07902","country":"United States","geoPoint":{"lat":40.71562,"lon":-74.36468}},{"facility":"University of New Mexico Cancer Center","status":"RECRUITING","city":"Albuquerque","state":"New Mexico","zip":"87102","country":"United States","contacts":[{"name":"Site Public Contact","role":"CONTACT","phone":"505-925-0366","email":"LByatt@nmcca.org"},{"name":"John F. Kuttesch","role":"PRINCIPAL_INVESTIGATOR"}],"geoPoint":{"lat":35.08449,"lon":-106.65114}},{"facility":"Albany Medical Center","status":"RECRUITING","city":"Albany","state":"New York","zip":"12208","country":"United States","contacts":[{"name":"Site Public Contact","role":"CONTACT","phone":"518-262-5513"},{"name":"Lauren R. Weintraub","role":"PRINCIPAL_INVESTIGATOR"}],"geoPoint":{"lat":42.65258,"lon":-73.75623}},{"facility":"Montefiore Medical Center - Moses Campus","status":"RECRUITING","city":"Bronx","state":"New York","zip":"10467","country":"United States","contacts":[{"name":"Site Public Contact","role":"CONTACT","phone":"718-379-6866","email":"aaraiza@montefiore.org"},{"name":"Lisa Gennarini","role":"PRINCIPAL_INVESTIGATOR"}],"geoPoint":{"lat":40.84985,"lon":-73.86641}},{"facility":"Brooklyn Hospital Center","status":"ACTIVE_NOT_RECRUITING","city":"Brooklyn","state":"New York","zip":"11201","country":"United States","geoPoint":{"lat":40.6501,"lon":-73.94958}},{"facility":"Roswell Park Cancer Institute","status":"SUSPENDED","city":"Buffalo","state":"New York","zip":"14263","country":"United States","geoPoint":{"lat":42.88645,"lon":-78.87837}},{"facility":"NYU Winthrop Hospital","status":"RECRUITING","city":"Mineola","state":"New York","zip":"11501","country":"United States","contacts":[{"name":"Site Public Contact","role":"CONTACT","phone":"646-754-4624","email":"david.wallach@nyulangone.org"},{"name":"Mark E. Weinblatt","role":"PRINCIPAL_INVESTIGATOR"}],"geoPoint":{"lat":40.74927,"lon":-73.64068}},{"facility":"The Steven and Alexandra Cohen Children's Medical Center of New York","status":"SUSPENDED","city":"New Hyde Park","state":"New York","zip":"11040","country":"United States","geoPoint":{"lat":40.7351,"lon":-73.68791}},{"facility":"Laura and Isaac Perlmutter Cancer Center at NYU Langone","status":"SUSPENDED","city":"New York","state":"New York","zip":"10016","country":"United States","geoPoint":{"lat":40.71427,"lon":-74.00597}},{"facility":"Mount Sinai Hospital","status":"RECRUITING","city":"New York","state":"New York","zip":"10029","country":"United States","contacts":[{"name":"Site Public Contact","role":"CONTACT","phone":"212-824-7309","email":"CCTO@mssm.edu"},{"name":"Pillai Pallavi Madhusoodhan","role":"PRINCIPAL_INVESTIGATOR"}],"geoPoint":{"lat":40.71427,"lon":-74.00597}},{"facility":"NYP/Columbia University Medical Center/Herbert Irving Comprehensive Cancer Center","status":"RECRUITING","city":"New York","state":"New York","zip":"10032","country":"United States","contacts":[{"name":"Site Public Contact","role":"CONTACT","phone":"212-305-6361","email":"nr2616@cumc.columbia.edu"},{"name":"Alice Lee","role":"PRINCIPAL_INVESTIGATOR"}],"geoPoint":{"lat":40.71427,"lon":-74.00597}},{"facility":"Memorial Sloan Kettering Cancer Center","status":"SUSPENDED","city":"New York","state":"New York","zip":"10065","country":"United States","geoPoint":{"lat":40.71427,"lon":-74.00597}},{"facility":"NYP/Weill Cornell Medical Center","status":"SUSPENDED","city":"New York","state":"New York","zip":"10065","country":"United States","geoPoint":{"lat":40.71427,"lon":-74.00597}},{"facility":"University of Rochester","status":"SUSPENDED","city":"Rochester","state":"New York","zip":"14642","country":"United States","geoPoint":{"lat":43.15478,"lon":-77.61556}},{"facility":"Stony Brook University Medical Center","status":"RECRUITING","city":"Stony Brook","state":"New York","zip":"11794","country":"United States","contacts":[{"name":"Site Public Contact","role":"CONTACT","phone":"800-862-2215"},{"name":"Laura E. Hogan","role":"PRINCIPAL_INVESTIGATOR"}],"geoPoint":{"lat":40.92565,"lon":-73.14094}},{"facility":"State University of New York Upstate Medical University","status":"RECRUITING","city":"Syracuse","state":"New York","zip":"13210","country":"United States","contacts":[{"name":"Site Public Contact","role":"CONTACT","phone":"315-464-5476"},{"name":"Philip M. Monteleone","role":"PRINCIPAL_INVESTIGATOR"}],"geoPoint":{"lat":43.04812,"lon":-76.14742}},{"facility":"New York Medical College","status":"RECRUITING","city":"Valhalla","state":"New York","zip":"10595","country":"United States","contacts":[{"name":"Site Public Contact","role":"CONTACT","phone":"914-594-3794"},{"name":"Jessica C. Hochberg","role":"PRINCIPAL_INVESTIGATOR"}],"geoPoint":{"lat":41.07482,"lon":-73.77513}},{"facility":"Mission Hospital","status":"RECRUITING","city":"Asheville","state":"North Carolina","zip":"28801","country":"United States","contacts":[{"name":"Site Public Contact","role":"CONTACT","phone":"828-418-1354","email":"courtney.trafford@hcahealthcare.com"},{"name":"Douglas J. Scothorn","role":"PRINCIPAL_INVESTIGATOR"}],"geoPoint":{"lat":35.60095,"lon":-82.55402}},{"facility":"UNC Lineberger Comprehensive Cancer Center","status":"RECRUITING","city":"Chapel Hill","state":"North Carolina","zip":"27599","country":"United States","contacts":[{"name":"Site Public Contact","role":"CONTACT","phone":"877-668-0683","email":"cancerclinicaltrials@med.unc.edu"},{"name":"Stuart H. Gold","role":"PRINCIPAL_INVESTIGATOR"}],"geoPoint":{"lat":35.9132,"lon":-79.05584}},{"facility":"Carolinas Medical Center/Levine Cancer Institute","status":"RECRUITING","city":"Charlotte","state":"North Carolina","zip":"28203","country":"United States","contacts":[{"name":"Site Public Contact","role":"CONTACT","phone":"800-804-9376"},{"name":"Joel A. Kaplan","role":"PRINCIPAL_INVESTIGATOR"}],"geoPoint":{"lat":35.22709,"lon":-80.84313}},{"facility":"Novant Health Presbyterian Medical Center","status":"RECRUITING","city":"Charlotte","state":"North Carolina","zip":"28204","country":"United States","contacts":[{"name":"Site Public Contact","role":"CONTACT","phone":"704-384-5369","email":"nnechiporchik@novanthealth.org"},{"name":"Jessica A. Bell","role":"PRINCIPAL_INVESTIGATOR"}],"geoPoint":{"lat":35.22709,"lon":-80.84313}},{"facility":"Duke University Medical Center","status":"RECRUITING","city":"Durham","state":"North Carolina","zip":"27710","country":"United States","contacts":[{"name":"Site Public Contact","role":"CONTACT","phone":"888-275-3853"},{"name":"Lars M. Wagner","role":"PRINCIPAL_INVESTIGATOR"}],"geoPoint":{"lat":35.99403,"lon":-78.89862}},{"facility":"East Carolina University","status":"RECRUITING","city":"Greenville","state":"North Carolina","zip":"27834","country":"United States","contacts":[{"name":"Site Public Contact","role":"CONTACT","phone":"252-744-1015","email":"eubankss@ecu.edu"},{"name":"Andrea R. Whitfield","role":"PRINCIPAL_INVESTIGATOR"}],"geoPoint":{"lat":35.61266,"lon":-77.36635}},{"facility":"Wake Forest University Health Sciences","status":"RECRUITING","city":"Winston-Salem","state":"North Carolina","zip":"27157","country":"United States","contacts":[{"name":"Site Public Contact","role":"CONTACT","phone":"336-713-6771"},{"name":"David E. Kram","role":"PRINCIPAL_INVESTIGATOR"}],"geoPoint":{"lat":36.09986,"lon":-80.24422}},{"facility":"Sanford Broadway Medical Center","status":"RECRUITING","city":"Fargo","state":"North Dakota","zip":"58122","country":"United States","contacts":[{"name":"Site Public Contact","role":"CONTACT","phone":"701-323-5760","email":"OncologyClinicalTrialsFargo@sanfordhealth.org"},{"name":"Samuel J. Milanovich","role":"PRINCIPAL_INVESTIGATOR"}],"geoPoint":{"lat":46.87719,"lon":-96.7898}},{"facility":"Children's Hospital Medical Center of Akron","status":"RECRUITING","city":"Akron","state":"Ohio","zip":"44308","country":"United States","contacts":[{"name":"Site Public Contact","role":"CONTACT","phone":"330-543-3193"},{"name":"Steven J. Kuerbitz","role":"PRINCIPAL_INVESTIGATOR"}],"geoPoint":{"lat":41.08144,"lon":-81.51901}},{"facility":"Cincinnati Children's Hospital Medical Center","status":"RECRUITING","city":"Cincinnati","state":"Ohio","zip":"45229","country":"United States","contacts":[{"name":"Site Public Contact","role":"CONTACT","phone":"513-636-2799","email":"cancer@cchmc.org"},{"name":"James I. Geller","role":"PRINCIPAL_INVESTIGATOR"}],"geoPoint":{"lat":39.12713,"lon":-84.51435}},{"facility":"Rainbow Babies and Childrens Hospital","status":"RECRUITING","city":"Cleveland","state":"Ohio","zip":"44106","country":"United States","contacts":[{"name":"Site Public Contact","role":"CONTACT","phone":"216-844-5437"},{"name":"Duncan S. Stearns","role":"PRINCIPAL_INVESTIGATOR"}],"geoPoint":{"lat":41.4995,"lon":-81.69541}},{"facility":"Cleveland Clinic Foundation","status":"RECRUITING","city":"Cleveland","state":"Ohio","zip":"44195","country":"United States","contacts":[{"name":"Site Public Contact","role":"CONTACT","phone":"866-223-8100","email":"TaussigResearch@ccf.org"},{"name":"Rabi Hanna","role":"PRINCIPAL_INVESTIGATOR"}],"geoPoint":{"lat":41.4995,"lon":-81.69541}},{"facility":"Nationwide Children's Hospital","status":"RECRUITING","city":"Columbus","state":"Ohio","zip":"43205","country":"United States","contacts":[{"name":"Site Public Contact","role":"CONTACT","phone":"614-072-2657","email":"amy.yekisa@nationwidechildrens.org"},{"name":"Mark A. Ranalli","role":"PRINCIPAL_INVESTIGATOR"}],"geoPoint":{"lat":39.96118,"lon":-82.99879}},{"facility":"Dayton Children's Hospital","status":"RECRUITING","city":"Dayton","state":"Ohio","zip":"45404","country":"United States","contacts":[{"name":"Site Public Contact","role":"CONTACT","phone":"800-228-4055"},{"name":"Ayman A. El-Sheikh","role":"PRINCIPAL_INVESTIGATOR"}],"geoPoint":{"lat":39.75895,"lon":-84.19161}},{"facility":"ProMedica Toledo Hospital/Russell J Ebeid Children's Hospital","status":"RECRUITING","city":"Toledo","state":"Ohio","zip":"43606","country":"United States","contacts":[{"name":"Site Public Contact","role":"CONTACT","phone":"419-824-1842"},{"name":"Jamie L. Dargart","role":"PRINCIPAL_INVESTIGATOR"}],"geoPoint":{"lat":41.66394,"lon":-83.55521}},{"facility":"Mercy Children's Hospital","status":"SUSPENDED","city":"Toledo","state":"Ohio","zip":"43608","country":"United States","geoPoint":{"lat":41.66394,"lon":-83.55521}},{"facility":"University of Oklahoma Health Sciences Center","status":"RECRUITING","city":"Oklahoma City","state":"Oklahoma","zip":"73104","country":"United States","contacts":[{"name":"Site Public Contact","role":"CONTACT","phone":"405-271-8777","email":"ou-clinical-trials@ouhsc.edu"},{"name":"Rene Y. McNall-Knapp","role":"PRINCIPAL_INVESTIGATOR"}],"geoPoint":{"lat":35.46756,"lon":-97.51643}},{"facility":"Natalie Warren Bryant Cancer Center at Saint Francis","status":"RECRUITING","city":"Tulsa","state":"Oklahoma","zip":"74136","country":"United States","contacts":[{"name":"Site Public Contact","role":"CONTACT","phone":"918-494-2200"},{"name":"Gregory B. Kirkpatrick","role":"PRINCIPAL_INVESTIGATOR"}],"geoPoint":{"lat":36.15398,"lon":-95.99277}},{"facility":"Legacy Emanuel Children's Hospital","status":"RECRUITING","city":"Portland","state":"Oregon","zip":"97227","country":"United States","contacts":[{"name":"Site Public Contact","role":"CONTACT","phone":"503-413-2560"},{"name":"Janice F. Olson","role":"PRINCIPAL_INVESTIGATOR"}],"geoPoint":{"lat":45.52345,"lon":-122.67621}},{"facility":"Legacy Emanuel Hospital and Health Center","status":"ACTIVE_NOT_RECRUITING","city":"Portland","state":"Oregon","zip":"97227","country":"United States","geoPoint":{"lat":45.52345,"lon":-122.67621}},{"facility":"Oregon Health and Science University","status":"RECRUITING","city":"Portland","state":"Oregon","zip":"97239","country":"United States","contacts":[{"name":"Site Public Contact","role":"CONTACT","phone":"503-494-1080","email":"trials@ohsu.edu"},{"name":"Katrina Winsnes","role":"PRINCIPAL_INVESTIGATOR"}],"geoPoint":{"lat":45.52345,"lon":-122.67621}},{"facility":"Lehigh Valley Hospital-Cedar Crest","status":"SUSPENDED","city":"Allentown","state":"Pennsylvania","zip":"18103","country":"United States","geoPoint":{"lat":40.60843,"lon":-75.49018}},{"facility":"Lehigh Valley Hospital - Muhlenberg","status":"SUSPENDED","city":"Bethlehem","state":"Pennsylvania","zip":"18017","country":"United States","geoPoint":{"lat":40.62593,"lon":-75.37046}},{"facility":"Geisinger Medical Center","status":"RECRUITING","city":"Danville","state":"Pennsylvania","zip":"17822","country":"United States","contacts":[{"name":"Site Public Contact","role":"CONTACT","phone":"570-271-5251","email":"HemonCCTrials@geisinger.edu"},{"name":"Jagadeesh Ramdas","role":"PRINCIPAL_INVESTIGATOR"}],"geoPoint":{"lat":40.96342,"lon":-76.61273}},{"facility":"Penn State Children's Hospital","status":"RECRUITING","city":"Hershey","state":"Pennsylvania","zip":"17033","country":"United States","contacts":[{"name":"Site Public Contact","role":"CONTACT","phone":"717-531-6012"},{"name":"Lisa M. McGregor","role":"PRINCIPAL_INVESTIGATOR"}],"geoPoint":{"lat":40.28592,"lon":-76.65025}},{"facility":"Children's Hospital of Philadelphia","status":"RECRUITING","city":"Philadelphia","state":"Pennsylvania","zip":"19104","country":"United States","contacts":[{"name":"Site Public Contact","role":"CONTACT","phone":"267-425-5544","email":"CancerTrials@email.chop.edu"},{"name":"Frank M. Balis","role":"PRINCIPAL_INVESTIGATOR"}],"geoPoint":{"lat":39.95233,"lon":-75.16379}},{"facility":"Saint Christopher's Hospital for Children","status":"RECRUITING","city":"Philadelphia","state":"Pennsylvania","zip":"19134","country":"United States","contacts":[{"name":"Site Public Contact","role":"CONTACT","phone":"215-427-8991"},{"name":"Gregory E. Halligan","role":"PRINCIPAL_INVESTIGATOR"}],"geoPoint":{"lat":39.95233,"lon":-75.16379}},{"facility":"Children's Hospital of Pittsburgh of UPMC","status":"RECRUITING","city":"Pittsburgh","state":"Pennsylvania","zip":"15224","country":"United States","contacts":[{"name":"Site Public Contact","role":"CONTACT","phone":"412-692-8570","email":"jean.tersak@chp.edu"},{"name":"Arthur K. Ritchey","role":"PRINCIPAL_INVESTIGATOR"}],"geoPoint":{"lat":40.44062,"lon":-79.99589}},{"facility":"Rhode Island Hospital","status":"RECRUITING","city":"Providence","state":"Rhode Island","zip":"02903","country":"United States","contacts":[{"name":"Site Public Contact","role":"CONTACT","phone":"401-444-1488"},{"name":"Jennifer J. Greene Welch","role":"PRINCIPAL_INVESTIGATOR"}],"geoPoint":{"lat":41.82399,"lon":-71.41283}},{"facility":"Medical University of South Carolina","status":"RECRUITING","city":"Charleston","state":"South Carolina","zip":"29425","country":"United States","contacts":[{"name":"Site Public Contact","role":"CONTACT","phone":"843-792-9321","email":"hcc-clinical-trials@musc.edu"},{"name":"Jacqueline M. Kraveka","role":"PRINCIPAL_INVESTIGATOR"}],"geoPoint":{"lat":32.77657,"lon":-79.93092}},{"facility":"Prisma Health Richland Hospital","status":"RECRUITING","city":"Columbia","state":"South Carolina","zip":"29203","country":"United States","contacts":[{"name":"Site Public Contact","role":"CONTACT","phone":"803-434-3533"},{"name":"Stuart L. Cramer","role":"PRINCIPAL_INVESTIGATOR"}],"geoPoint":{"lat":34.00071,"lon":-81.03481}},{"facility":"BI-LO Charities Children's Cancer Center","status":"RECRUITING","city":"Greenville","state":"South Carolina","zip":"29605","country":"United States","contacts":[{"name":"Site Public Contact","role":"CONTACT","phone":"864-522-2066","email":"kim.williams3@prismahealth.org"},{"name":"Nichole L. Bryant","role":"PRINCIPAL_INVESTIGATOR"}],"geoPoint":{"lat":34.85262,"lon":-82.39401}},{"facility":"Greenville Cancer Treatment Center","status":"ACTIVE_NOT_RECRUITING","city":"Greenville","state":"South Carolina","zip":"29605","country":"United States","geoPoint":{"lat":34.85262,"lon":-82.39401}},{"facility":"Sanford USD Medical Center - Sioux Falls","status":"RECRUITING","city":"Sioux Falls","state":"South Dakota","zip":"57117-5134","country":"United States","contacts":[{"name":"Site Public Contact","role":"CONTACT","phone":"605-312-3320","email":"OncologyClinicalTrialsSF@SanfordHealth.org"},{"name":"Kayelyn J. Wagner","role":"PRINCIPAL_INVESTIGATOR"}],"geoPoint":{"lat":43.54997,"lon":-96.70033}},{"facility":"T C Thompson Children's Hospital","status":"SUSPENDED","city":"Chattanooga","state":"Tennessee","zip":"37403","country":"United States","geoPoint":{"lat":35.04563,"lon":-85.30968}},{"facility":"East Tennessee Childrens Hospital","status":"RECRUITING","city":"Knoxville","state":"Tennessee","zip":"37916","country":"United States","contacts":[{"name":"Site Public Contact","role":"CONTACT","phone":"865-541-8266"},{"name":"Ray C. Pais","role":"PRINCIPAL_INVESTIGATOR"}],"geoPoint":{"lat":35.96064,"lon":-83.92074}},{"facility":"Saint Jude Children's Research Hospital","status":"RECRUITING","city":"Memphis","state":"Tennessee","zip":"38105","country":"United States","contacts":[{"name":"Site Public Contact","role":"CONTACT","phone":"888-226-4343","email":"referralinfo@stjude.org"},{"name":"Rachel C. Brennan","role":"PRINCIPAL_INVESTIGATOR"}],"geoPoint":{"lat":35.14953,"lon":-90.04898}},{"facility":"The Children's Hospital at TriStar Centennial","status":"RECRUITING","city":"Nashville","state":"Tennessee","zip":"37203","country":"United States","contacts":[{"name":"Site Public Contact","role":"CONTACT","phone":"615-342-1919"},{"name":"Haydar A. Frangoul","role":"PRINCIPAL_INVESTIGATOR"}],"geoPoint":{"lat":36.16589,"lon":-86.78444}},{"facility":"Vanderbilt University/Ingram Cancer Center","status":"RECRUITING","city":"Nashville","state":"Tennessee","zip":"37232","country":"United States","contacts":[{"name":"Site Public Contact","role":"CONTACT","phone":"800-811-8480"},{"name":"Daniel J. Benedetti","role":"PRINCIPAL_INVESTIGATOR"}],"geoPoint":{"lat":36.16589,"lon":-86.78444}},{"facility":"Texas Tech University Health Sciences Center-Amarillo","status":"RECRUITING","city":"Amarillo","state":"Texas","zip":"79106","country":"United States","contacts":[{"name":"Site Public Contact","role":"CONTACT","phone":"806-354-5411"},{"name":"Samer Zaid Kaylani","role":"PRINCIPAL_INVESTIGATOR"}],"geoPoint":{"lat":35.222,"lon":-101.8313}},{"facility":"Dell Children's Medical Center of Central Texas","status":"RECRUITING","city":"Austin","state":"Texas","zip":"78723","country":"United States","contacts":[{"name":"Site Public Contact","role":"CONTACT","phone":"512-628-1902","email":"TXAUS-DL-SFCHemonc.research@ascension.org"},{"name":"Shannon M. Cohn","role":"PRINCIPAL_INVESTIGATOR"}],"geoPoint":{"lat":30.26715,"lon":-97.74306}},{"facility":"Driscoll Children's Hospital","status":"RECRUITING","city":"Corpus Christi","state":"Texas","zip":"78411","country":"United States","contacts":[{"name":"Site Public Contact","role":"CONTACT","phone":"361-694-5311","email":"Crystal.DeLosSantos@dchstx.org"},{"name":"Nkechi I. Mba","role":"PRINCIPAL_INVESTIGATOR"}],"geoPoint":{"lat":27.80058,"lon":-97.39638}},{"facility":"Medical City Dallas Hospital","status":"RECRUITING","city":"Dallas","state":"Texas","zip":"75230","country":"United States","contacts":[{"name":"Site Public Contact","role":"CONTACT","phone":"972-566-5588"},{"name":"Stanton C. Goldman","role":"PRINCIPAL_INVESTIGATOR"}],"geoPoint":{"lat":32.78306,"lon":-96.80667}},{"facility":"UT Southwestern/Simmons Cancer Center-Dallas","status":"RECRUITING","city":"Dallas","state":"Texas","zip":"75390","country":"United States","contacts":[{"name":"Site Public Contact","role":"CONTACT","phone":"214-648-7097","email":"canceranswerline@UTSouthwestern.edu"},{"name":"Jonathan E. Wickiser","role":"PRINCIPAL_INVESTIGATOR"}],"geoPoint":{"lat":32.78306,"lon":-96.80667}},{"facility":"Brooke Army Medical Center","status":"SUSPENDED","city":"Fort Sam Houston","state":"Texas","zip":"78234","country":"United States","geoPoint":{"lat":29.45746,"lon":-98.4472}},{"facility":"Cook Children's Medical Center","status":"RECRUITING","city":"Fort Worth","state":"Texas","zip":"76104","country":"United States","contacts":[{"name":"Site Public Contact","role":"CONTACT","phone":"682-885-2103","email":"CookChildrensResearch@cookchildrens.org"},{"name":"Kelly L. Vallance","role":"PRINCIPAL_INVESTIGATOR"}],"geoPoint":{"lat":32.72541,"lon":-97.32085}},{"facility":"Baylor College of Medicine/Dan L Duncan Comprehensive Cancer Center","status":"RECRUITING","city":"Houston","state":"Texas","zip":"77030","country":"United States","contacts":[{"name":"Site Public Contact","role":"CONTACT","phone":"713-798-1354","email":"burton@bcm.edu"},{"name":"Valeria Smith","role":"PRINCIPAL_INVESTIGATOR"}],"geoPoint":{"lat":29.76328,"lon":-95.36327}},{"facility":"M D Anderson Cancer Center","status":"RECRUITING","city":"Houston","state":"Texas","zip":"77030","country":"United States","contacts":[{"name":"Site Public Contact","role":"CONTACT","phone":"877-632-6789","email":"askmdanderson@mdanderson.org"},{"name":"Najat C. Daw","role":"PRINCIPAL_INVESTIGATOR"}],"geoPoint":{"lat":29.76328,"lon":-95.36327}},{"facility":"Covenant Children's Hospital","status":"RECRUITING","city":"Lubbock","state":"Texas","zip":"79410","country":"United States","contacts":[{"name":"Site Public Contact","role":"CONTACT","email":"helpdesk@childrensoncologygroup.org"},{"name":"Kishor M. Bhende","role":"PRINCIPAL_INVESTIGATOR"}],"geoPoint":{"lat":33.57786,"lon":-101.85517}},{"facility":"UMC Cancer Center / UMC Health System","status":"RECRUITING","city":"Lubbock","state":"Texas","zip":"79415","country":"United States","contacts":[{"name":"Site Public Contact","role":"CONTACT","phone":"806-775-8590"},{"name":"Mohamad M. Al-Rahawan","role":"PRINCIPAL_INVESTIGATOR"}],"geoPoint":{"lat":33.57786,"lon":-101.85517}},{"facility":"Children's Hospital of San Antonio","status":"RECRUITING","city":"San Antonio","state":"Texas","zip":"78207","country":"United States","contacts":[{"name":"Site Public Contact","role":"CONTACT","email":"helpdesk@childrensoncologygroup.org"},{"name":"Timothy C. Griffin","role":"PRINCIPAL_INVESTIGATOR"}],"geoPoint":{"lat":29.42412,"lon":-98.49363}},{"facility":"Methodist Children's Hospital of South Texas","status":"RECRUITING","city":"San Antonio","state":"Texas","zip":"78229","country":"United States","contacts":[{"name":"Site Public Contact","role":"CONTACT","phone":"210-575-6240","email":"Vinod.GidvaniDiaz@hcahealthcare.com"},{"name":"Vinod K. Gidvani-Diaz","role":"PRINCIPAL_INVESTIGATOR"}],"geoPoint":{"lat":29.42412,"lon":-98.49363}},{"facility":"University of Texas Health Science Center at San Antonio","status":"RECRUITING","city":"San Antonio","state":"Texas","zip":"78229","country":"United States","contacts":[{"name":"Site Public Contact","role":"CONTACT","phone":"210-450-3800","email":"phoresearchoffice@uthscsa.edu"},{"name":"Anne-Marie R. Langevin","role":"PRINCIPAL_INVESTIGATOR"}],"geoPoint":{"lat":29.42412,"lon":-98.49363}},{"facility":"Scott and White Memorial Hospital","status":"SUSPENDED","city":"Temple","state":"Texas","zip":"76508","country":"United States","geoPoint":{"lat":31.09823,"lon":-97.34278}},{"facility":"Primary Children's Hospital","status":"SUSPENDED","city":"Salt Lake City","state":"Utah","zip":"84113","country":"United States","geoPoint":{"lat":40.76078,"lon":-111.89105}},{"facility":"University of Vermont and State Agricultural College","status":"RECRUITING","city":"Burlington","state":"Vermont","zip":"05405","country":"United States","contacts":[{"name":"Site Public Contact","role":"CONTACT","phone":"802-656-8990","email":"rpo@uvm.edu"},{"name":"Jessica L. Heath","role":"PRINCIPAL_INVESTIGATOR"}],"geoPoint":{"lat":44.47588,"lon":-73.21207}},{"facility":"University of Virginia Cancer Center","status":"RECRUITING","city":"Charlottesville","state":"Virginia","zip":"22908","country":"United States","contacts":[{"name":"Site Public Contact","role":"CONTACT","phone":"434-243-6303","email":"PAS9E@virginia.edu"},{"name":"William C. Petersen","role":"PRINCIPAL_INVESTIGATOR"}],"geoPoint":{"lat":38.02931,"lon":-78.47668}},{"facility":"Inova Fairfax Hospital","status":"RECRUITING","city":"Falls Church","state":"Virginia","zip":"22042","country":"United States","contacts":[{"name":"Site Public Contact","role":"CONTACT","phone":"703-208-6650","email":"Stephanie.VanBebber@inova.org"},{"name":"Marshall A. Schorin","role":"PRINCIPAL_INVESTIGATOR"}],"geoPoint":{"lat":38.88233,"lon":-77.17109}},{"facility":"Children's Hospital of The King's Daughters","status":"RECRUITING","city":"Norfolk","state":"Virginia","zip":"23507","country":"United States","contacts":[{"name":"Site Public Contact","role":"CONTACT","phone":"757-668-7243","email":"CCBDCresearch@chkd.org"},{"name":"Eric J. Lowe","role":"PRINCIPAL_INVESTIGATOR"}],"geoPoint":{"lat":36.84681,"lon":-76.28522}},{"facility":"Naval Medical Center - Portsmouth","status":"ACTIVE_NOT_RECRUITING","city":"Portsmouth","state":"Virginia","zip":"23708-2197","country":"United States","geoPoint":{"lat":36.83543,"lon":-76.29827}},{"facility":"Virginia Commonwealth University/Massey Cancer Center","status":"RECRUITING","city":"Richmond","state":"Virginia","zip":"23298","country":"United States","contacts":[{"name":"Site Public Contact","role":"CONTACT","phone":"804-628-1914","email":"klcampbell@vcu.edu"},{"name":"Madhu S. Gowda","role":"PRINCIPAL_INVESTIGATOR"}],"geoPoint":{"lat":37.55376,"lon":-77.46026}},{"facility":"Carilion Children's","status":"RECRUITING","city":"Roanoke","state":"Virginia","zip":"24014","country":"United States","contacts":[{"name":"Site Public Contact","role":"CONTACT","phone":"540-266-6238","email":"wpmccarty@carilionclinic.org"},{"name":"Erwood G. Edwards","role":"PRINCIPAL_INVESTIGATOR"}],"geoPoint":{"lat":37.27097,"lon":-79.94143}},{"facility":"Seattle Children's Hospital","status":"RECRUITING","city":"Seattle","state":"Washington","zip":"98105","country":"United States","contacts":[{"name":"Site Public Contact","role":"CONTACT","phone":"866-987-2000"},{"name":"Sarah E. Leary","role":"PRINCIPAL_INVESTIGATOR"}],"geoPoint":{"lat":47.60621,"lon":-122.33207}},{"facility":"Providence Sacred Heart Medical Center and Children's Hospital","status":"RECRUITING","city":"Spokane","state":"Washington","zip":"99204","country":"United States","contacts":[{"name":"Site Public Contact","role":"CONTACT","phone":"800-228-6618","email":"HopeBeginsHere@providence.org"},{"name":"Judy L. Felgenhauer","role":"PRINCIPAL_INVESTIGATOR"}],"geoPoint":{"lat":47.65966,"lon":-117.42908}},{"facility":"Mary Bridge Children's Hospital and Health Center","status":"RECRUITING","city":"Tacoma","state":"Washington","zip":"98405","country":"United States","contacts":[{"name":"Site Public Contact","role":"CONTACT","phone":"253-403-1461","email":"research@multicare.org"},{"name":"Robert G. Irwin","role":"PRINCIPAL_INVESTIGATOR"}],"geoPoint":{"lat":47.25288,"lon":-122.44429}},{"facility":"Madigan Army Medical Center","status":"RECRUITING","city":"Tacoma","state":"Washington","zip":"98431","country":"United States","contacts":[{"name":"Site Public Contact","role":"CONTACT","phone":"253-968-0129","email":"mamcdci@amedd.army.mil"},{"name":"Melissa A. Forouhar","role":"PRINCIPAL_INVESTIGATOR"}],"geoPoint":{"lat":47.25288,"lon":-122.44429}},{"facility":"West Virginia University Charleston Division","status":"RECRUITING","city":"Charleston","state":"West Virginia","zip":"25304","country":"United States","contacts":[{"name":"Site Public Contact","role":"CONTACT","phone":"304-388-9944"},{"name":"Mohamad H. Badawi","role":"PRINCIPAL_INVESTIGATOR"}],"geoPoint":{"lat":38.34982,"lon":-81.63262}},{"facility":"Cabell-Huntington Hospital","status":"COMPLETED","city":"Huntington","state":"West Virginia","zip":"25701","country":"United States","geoPoint":{"lat":38.41925,"lon":-82.44515}},{"facility":"Saint Vincent Hospital Cancer Center Green Bay","status":"RECRUITING","city":"Green Bay","state":"Wisconsin","zip":"54301","country":"United States","contacts":[{"name":"Site Public Contact","role":"CONTACT","phone":"920-433-8889","email":"ewd_research_admin@hshs.org"},{"name":"Catherine A. Long","role":"PRINCIPAL_INVESTIGATOR"}],"geoPoint":{"lat":44.51916,"lon":-88.01983}},{"facility":"University of Wisconsin Hospital and Clinics","status":"RECRUITING","city":"Madison","state":"Wisconsin","zip":"53792","country":"United States","contacts":[{"name":"Site Public Contact","role":"CONTACT","phone":"800-622-8922"},{"name":"Kenneth B. De Santes","role":"PRINCIPAL_INVESTIGATOR"}],"geoPoint":{"lat":43.07305,"lon":-89.40123}},{"facility":"Marshfield Medical Center-Marshfield","status":"RECRUITING","city":"Marshfield","state":"Wisconsin","zip":"54449","country":"United States","contacts":[{"name":"Site Public Contact","role":"CONTACT","phone":"800-782-8581","email":"oncology.clinical.trials@marshfieldresearch.org"},{"name":"Michelle A. Manalang","role":"PRINCIPAL_INVESTIGATOR"}],"geoPoint":{"lat":44.66885,"lon":-90.1718}},{"facility":"Children's Hospital of Wisconsin","status":"RECRUITING","city":"Milwaukee","state":"Wisconsin","zip":"53226","country":"United States","contacts":[{"name":"Site Public Contact","role":"CONTACT","phone":"414-955-4727","email":"MACCCTO@mcw.edu"},{"name":"Meghen B. Browning","role":"PRINCIPAL_INVESTIGATOR"}],"geoPoint":{"lat":43.0389,"lon":-87.90647}},{"facility":"John Hunter Children's Hospital","status":"RECRUITING","city":"Hunter Regional Mail Centre","state":"New South Wales","zip":"2310","country":"Australia","contacts":[{"name":"Site Public Contact","role":"CONTACT","phone":"(02) 4985 5180"},{"name":"Bhavna Padhye","role":"PRINCIPAL_INVESTIGATOR"}]},{"facility":"Sydney Children's Hospital","status":"RECRUITING","city":"Randwick","state":"New South Wales","zip":"2031","country":"Australia","contacts":[{"name":"Site Public Contact","role":"CONTACT","phone":"(02) 9382-1721"},{"name":"Bhavna Padhye","role":"PRINCIPAL_INVESTIGATOR"}],"geoPoint":{"lat":-33.91439,"lon":151.24895}},{"facility":"The Children's Hospital at Westmead","status":"RECRUITING","city":"Westmead","state":"New South Wales","zip":"2145","country":"Australia","contacts":[{"name":"Site Public Contact","role":"CONTACT","phone":"61-2-9845 1400"},{"name":"Bhavna Padhye","role":"PRINCIPAL_INVESTIGATOR"}],"geoPoint":{"lat":-33.80383,"lon":150.98768}},{"facility":"Royal Brisbane and Women's Hospital","status":"ACTIVE_NOT_RECRUITING","city":"Herston","state":"Queensland","zip":"4029","country":"Australia","geoPoint":{"lat":-27.44453,"lon":153.01852}},{"facility":"Royal Children's Hospital-Brisbane","status":"ACTIVE_NOT_RECRUITING","city":"Herston","state":"Queensland","zip":"4029","country":"Australia","geoPoint":{"lat":-27.44453,"lon":153.01852}},{"facility":"Queensland Children's Hospital","status":"RECRUITING","city":"South Brisbane","state":"Queensland","zip":"4101","country":"Australia","contacts":[{"name":"Site Public Contact","role":"CONTACT","phone":"61 7 3068 1111"},{"name":"Steven A. Foresto","role":"PRINCIPAL_INVESTIGATOR"}],"geoPoint":{"lat":-27.48034,"lon":153.02049}},{"facility":"Women's and Children's Hospital-Adelaide","status":"RECRUITING","city":"North Adelaide","state":"South Australia","zip":"5006","country":"Australia","contacts":[{"name":"Site Public Contact","role":"CONTACT","phone":"(08) 8161 7327","email":"cywhs.oncsec@health.sa.gov.au"},{"name":"Maria L. Kirby","role":"PRINCIPAL_INVESTIGATOR"}],"geoPoint":{"lat":-34.90733,"lon":138.59141}},{"facility":"Monash Medical Center-Clayton Campus","status":"SUSPENDED","city":"Clayton","state":"Victoria","zip":"3168","country":"Australia","geoPoint":{"lat":-37.91667,"lon":145.11667}},{"facility":"Royal Children's Hospital","status":"SUSPENDED","city":"Parkville","state":"Victoria","zip":"3052","country":"Australia","geoPoint":{"lat":-37.78333,"lon":144.95}},{"facility":"Princess Margaret Hospital for Children","status":"ACTIVE_NOT_RECRUITING","city":"Perth","state":"Western Australia","zip":"6008","country":"Australia","geoPoint":{"lat":-31.95224,"lon":115.8614}},{"facility":"Perth Children's Hospital","status":"SUSPENDED","city":"Perth","state":"Western Australia","zip":"6009","country":"Australia","geoPoint":{"lat":-31.95224,"lon":115.8614}},{"facility":"Alberta Children's Hospital","status":"RECRUITING","city":"Calgary","state":"Alberta","zip":"T3B 6A8","country":"Canada","contacts":[{"name":"Site Public Contact","role":"CONTACT","phone":"403-220-6898","email":"research4kids@ucalgary.ca"},{"name":"Douglas R. Strother","role":"PRINCIPAL_INVESTIGATOR"}],"geoPoint":{"lat":51.05011,"lon":-114.08529}},{"facility":"University of Alberta Hospital","status":"RECRUITING","city":"Edmonton","state":"Alberta","zip":"T6G 2B7","country":"Canada","contacts":[{"name":"Site Public Contact","role":"CONTACT","phone":"780-407-6615","email":"val.taylor@albertahealthservices.ca"},{"name":"Sarah J. McKillop","role":"PRINCIPAL_INVESTIGATOR"}],"geoPoint":{"lat":53.55014,"lon":-113.46871}},{"facility":"British Columbia Children's Hospital","status":"RECRUITING","city":"Vancouver","state":"British Columbia","zip":"V6H 3V4","country":"Canada","contacts":[{"name":"Site Public Contact","role":"CONTACT","phone":"604-875-2345","phoneExt":"6477"},{"name":"David B. Dix","role":"PRINCIPAL_INVESTIGATOR"}],"geoPoint":{"lat":49.24966,"lon":-123.11934}},{"facility":"CancerCare Manitoba","status":"SUSPENDED","city":"Winnipeg","state":"Manitoba","zip":"R3E 0V9","country":"Canada","geoPoint":{"lat":49.8844,"lon":-97.14704}},{"facility":"Janeway Child Health Centre","status":"RECRUITING","city":"Saint John's","state":"Newfoundland and Labrador","zip":"A1B 3V6","country":"Canada","contacts":[{"name":"Site Public Contact","role":"CONTACT","phone":"866-722-1126"},{"name":"Lisa A. Goodyear","role":"PRINCIPAL_INVESTIGATOR"}],"geoPoint":{"lat":47.56494,"lon":-52.70931}},{"facility":"IWK Health Centre","status":"RECRUITING","city":"Halifax","state":"Nova Scotia","zip":"B3K 6R8","country":"Canada","contacts":[{"name":"Site Public Contact","role":"CONTACT","phone":"902-470-8037","email":"Research@iwk.nshealth.ca"},{"name":"Craig Erker","role":"PRINCIPAL_INVESTIGATOR"}],"geoPoint":{"lat":44.64533,"lon":-63.57239}},{"facility":"McMaster Children's Hospital at Hamilton Health Sciences","status":"SUSPENDED","city":"Hamilton","state":"Ontario","zip":"L8N 3Z5","country":"Canada","geoPoint":{"lat":43.25011,"lon":-79.84963}},{"facility":"Kingston Health Sciences Centre","status":"RECRUITING","city":"Kingston","state":"Ontario","zip":"K7L 2V7","country":"Canada","contacts":[{"name":"Site Public Contact","role":"CONTACT","phone":"613-549-6666","email":"cc-clinicaltrials@kgh.kari.net"},{"name":"Mariana P. Silva","role":"PRINCIPAL_INVESTIGATOR"}],"geoPoint":{"lat":44.22976,"lon":-76.48101}},{"facility":"Children's Hospital","status":"SUSPENDED","city":"London","state":"Ontario","zip":"N6A 5W9","country":"Canada","geoPoint":{"lat":42.98339,"lon":-81.23304}},{"facility":"Children's Hospital of Eastern Ontario","status":"RECRUITING","city":"Ottawa","state":"Ontario","zip":"K1H 8L1","country":"Canada","contacts":[{"name":"Site Public Contact","role":"CONTACT","phone":"613-738-3931"},{"name":"Donna L. Johnston","role":"PRINCIPAL_INVESTIGATOR"}],"geoPoint":{"lat":45.41117,"lon":-75.69812}},{"facility":"Hospital for Sick Children","status":"SUSPENDED","city":"Toronto","state":"Ontario","zip":"M5G 1X8","country":"Canada","geoPoint":{"lat":43.70011,"lon":-79.4163}},{"facility":"The Montreal Children's Hospital of the MUHC","status":"SUSPENDED","city":"Montreal","state":"Quebec","zip":"H3H 1P3","country":"Canada","geoPoint":{"lat":45.50884,"lon":-73.58781}},{"facility":"Centre Hospitalier Universitaire Sainte-Justine","status":"SUSPENDED","city":"Montreal","state":"Quebec","zip":"H3T 1C5","country":"Canada","geoPoint":{"lat":45.50884,"lon":-73.58781}},{"facility":"Allan Blair Cancer Centre","status":"ACTIVE_NOT_RECRUITING","city":"Regina","state":"Saskatchewan","zip":"S4T 7T1","country":"Canada","geoPoint":{"lat":50.45008,"lon":-104.6178}},{"facility":"Saskatoon Cancer Centre","status":"SUSPENDED","city":"Saskatoon","state":"Saskatchewan","zip":"S7N 4H4","country":"Canada","geoPoint":{"lat":52.13238,"lon":-106.66892}},{"facility":"Centre Hospitalier Universitaire de Quebec","status":"SUSPENDED","city":"Quebec","zip":"G1V 4G2","country":"Canada","geoPoint":{"lat":46.81228,"lon":-71.21454}},{"facility":"Schneider Children's Medical Center of Israel","status":"SUSPENDED","city":"Petah Tikua","zip":"49202","country":"Israel","geoPoint":{"lat":32.08707,"lon":34.88747}},{"facility":"Starship Children's Hospital","status":"SUSPENDED","city":"Grafton","state":"Auckland","zip":"1145","country":"New Zealand","geoPoint":{"lat":-36.86029,"lon":174.76566}},{"facility":"Christchurch Hospital","status":"SUSPENDED","city":"Christchurch","zip":"8011","country":"New Zealand","geoPoint":{"lat":-43.53333,"lon":172.63333}},{"facility":"Wellington Children's Hospital","status":"COMPLETED","city":"Wellington","zip":"6002","country":"New Zealand","geoPoint":{"lat":-41.28664,"lon":174.77557}},{"facility":"San Jorge Children's Hospital","status":"SUSPENDED","city":"San Juan","zip":"00912","country":"Puerto Rico","geoPoint":{"lat":18.46633,"lon":-66.10572}},{"facility":"University Pediatric Hospital","status":"RECRUITING","city":"San Juan","zip":"00926","country":"Puerto Rico","contacts":[{"name":"Site Public Contact","role":"CONTACT","phone":"787-474-0333"},{"name":"Maria E. Echevarria","role":"PRINCIPAL_INVESTIGATOR"}],"geoPoint":{"lat":18.46633,"lon":-66.10572}},{"facility":"Swiss Pediatric Oncology Group - Bern","status":"SUSPENDED","city":"Bern","zip":"3010","country":"Switzerland","geoPoint":{"lat":46.94809,"lon":7.44744}}]},"referencesModule":{"references":[{"pmid":"32267967","type":"DERIVED","citation":"Parsons LN, Mullen EA, Geller JI, Chi YY, Khanna G, Glick RD, Aldrink JH, Vallance KL, Kim Y, Fernandez CV, Dome JS, Perlman EJ. Outcome analysis of stage I epithelial-predominant favorable-histology Wilms tumors: A report from Children's Oncology Group study AREN03B2. Cancer. 2020 Jun 15;126(12):2866-2871. doi: 10.1002/cncr.32855. Epub 2020 Apr 8."}]}},"derivedSection":{"miscInfoModule":{"versionHolder":"2024-08-28"},"conditionBrowseModule":{"meshes":[{"id":"D000002277","term":"Carcinoma"},{"id":"D000009369","term":"Neoplasms"},{"id":"D000002292","term":"Carcinoma, Renal Cell"},{"id":"D000000236","term":"Adenoma"},{"id":"D000009396","term":"Wilms Tumor"},{"id":"D000018335","term":"Rhabdoid Tumor"},{"id":"D000007680","term":"Kidney Neoplasms"},{"id":"D000018276","term":"Carcinoma, Medullary"},{"id":"D000018227","term":"Sarcoma, Clear Cell"},{"id":"D000018201","term":"Nephroma, Mesoblastic"},{"id":"D000018206","term":"Angiolipoma"},{"id":"D000000232","term":"Adenofibroma"}],"ancestors":[{"id":"D000009375","term":"Neoplasms, Glandular and Epithelial"},{"id":"D000009370","term":"Neoplasms by Histologic Type"},{"id":"D000012509","term":"Sarcoma"},{"id":"D000018204","term":"Neoplasms, Connective and Soft Tissue"},{"id":"D000000230","term":"Adenocarcinoma"},{"id":"D000014571","term":"Urologic Neoplasms"},{"id":"D000014565","term":"Urogenital Neoplasms"},{"id":"D000009371","term":"Neoplasms by Site"},{"id":"D000052776","term":"Female Urogenital Diseases"},{"id":"D000005261","term":"Female Urogenital Diseases and Pregnancy Complications"},{"id":"D000091642","term":"Urogenital Diseases"},{"id":"D000007674","term":"Kidney Diseases"},{"id":"D000014570","term":"Urologic Diseases"},{"id":"D000052801","term":"Male Urogenital Diseases"},{"id":"D000018193","term":"Neoplasms, Complex and Mixed"},{"id":"D000009386","term":"Neoplastic Syndromes, Hereditary"},{"id":"D000030342","term":"Genetic Diseases, Inborn"},{"id":"D000018278","term":"Carcinoma, Neuroendocrine"},{"id":"D000018358","term":"Neuroendocrine Tumors"},{"id":"D000017599","term":"Neuroectodermal Tumors"},{"id":"D000009373","term":"Neoplasms, Germ Cell and Embryonal"},{"id":"D000018299","term":"Neoplasms, Ductal, Lobular, and Medullary"},{"id":"D000009380","term":"Neoplasms, Nerve Tissue"},{"id":"D000009372","term":"Neoplasms, Connective Tissue"},{"id":"D000018205","term":"Neoplasms, Adipose Tissue"},{"id":"D000018225","term":"Neoplasms, Fibroepithelial"},{"id":"D000018218","term":"Neoplasms, Fibrous Tissue"}],"browseLeaves":[{"id":"M3591","name":"Adenoma","asFound":"Adenoma","relevance":"HIGH"},{"id":"M5534","name":"Carcinoma","asFound":"Carcinoma","relevance":"HIGH"},{"id":"M10016","name":"Hyperplasia","relevance":"LOW"},{"id":"M10703","name":"Kidney Neoplasms","asFound":"Kidney Neoplasms","relevance":"HIGH"},{"id":"M15327","name":"Sarcoma","relevance":"LOW"},{"id":"M5548","name":"Carcinoma, Renal Cell","asFound":"Renal Cell Carcinoma","relevance":"HIGH"},{"id":"M20373","name":"Sarcoma, Clear Cell","asFound":"Clear Cell Sarcoma","relevance":"HIGH"},{"id":"M20479","name":"Rhabdoid Tumor","asFound":"Rhabdoid Tumor","relevance":"HIGH"},{"id":"M12341","name":"Wilms Tumor","asFound":"Wilms Tumor","relevance":"HIGH"},{"id":"M20421","name":"Carcinoma, Medullary","asFound":"Medullary Carcinoma","relevance":"HIGH"},{"id":"M20395","name":"Adenoma, Oxyphilic","relevance":"LOW"},{"id":"M20347","name":"Nephroma, Mesoblastic","asFound":"Congenital Mesoblastic Nephroma","relevance":"HIGH"},{"id":"M20352","name":"Angiolipoma","asFound":"Angiolipoma","relevance":"HIGH"},{"id":"M3587","name":"Adenofibroma","asFound":"Adenofibroma","relevance":"HIGH"},{"id":"M12320","name":"Neoplasms, Glandular and Epithelial","relevance":"LOW"},{"id":"M12315","name":"Neoplasms by Histologic Type","relevance":"LOW"},{"id":"M20350","name":"Neoplasms, Connective and Soft Tissue","relevance":"LOW"},{"id":"M3585","name":"Adenocarcinoma","relevance":"LOW"},{"id":"M17320","name":"Urologic Neoplasms","relevance":"LOW"},{"id":"M17315","name":"Urogenital Neoplasms","relevance":"LOW"},{"id":"M2875","name":"Urogenital Diseases","relevance":"LOW"},{"id":"M27093","name":"Female Urogenital Diseases","relevance":"LOW"},{"id":"M14127","name":"Pregnancy Complications","relevance":"LOW"},{"id":"M8399","name":"Female Urogenital Diseases and Pregnancy Complications","relevance":"LOW"},{"id":"M10698","name":"Kidney Diseases","relevance":"LOW"},{"id":"M17319","name":"Urologic Diseases","relevance":"LOW"},{"id":"M27095","name":"Male Urogenital Diseases","relevance":"LOW"},{"id":"M16355","name":"Syndrome","relevance":"LOW"},{"id":"M12331","name":"Neoplastic Syndromes, Hereditary","relevance":"LOW"},{"id":"M23686","name":"Genetic Diseases, Inborn","relevance":"LOW"},{"id":"M20423","name":"Carcinoma, Neuroendocrine","relevance":"LOW"},{"id":"M20495","name":"Neuroendocrine Tumors","relevance":"LOW"},{"id":"M19845","name":"Neuroectodermal Tumors","relevance":"LOW"},{"id":"M20388","name":"Neuroectodermal Tumors, Primitive","relevance":"LOW"},{"id":"M12318","name":"Neoplasms, Germ Cell and Embryonal","relevance":"LOW"},{"id":"M12325","name":"Neoplasms, Nerve Tissue","relevance":"LOW"},{"id":"M12317","name":"Neoplasms, Connective Tissue","relevance":"LOW"},{"id":"M20351","name":"Neoplasms, Adipose Tissue","relevance":"LOW"},{"id":"M20364","name":"Neoplasms, Fibrous Tissue","relevance":"LOW"},{"id":"T1341","name":"Clear Cell Renal Cell Carcinoma","asFound":"Renal Cell Carcinoma","relevance":"HIGH"},{"id":"T4906","name":"Renal Cell Carcinoma","asFound":"Renal Cell Carcinoma","relevance":"HIGH"},{"id":"T5284","name":"Soft Tissue Sarcoma","relevance":"LOW"},{"id":"T5651","name":"Thyroid Cancer, Medullary","asFound":"Medullary Carcinoma","relevance":"HIGH"},{"id":"T4995","name":"Rhabdoid Tumor","asFound":"Rhabdoid Tumor","relevance":"HIGH"},{"id":"T5932","name":"Wilms' Tumor","asFound":"Wilms Tumor","relevance":"HIGH"},{"id":"T4400","name":"Papillary Renal Cell Carcinoma","asFound":"Papillary Renal Cell Carcinoma","relevance":"HIGH"},{"id":"T1193","name":"Chromophil Renal Cell Carcinoma","asFound":"Papillary Renal Cell Carcinoma","relevance":"HIGH"},{"id":"T4916","name":"Renal Medullary Carcinoma","asFound":"Kidney Medullary Carcinoma","relevance":"HIGH"},{"id":"T1523","name":"Congenital Mesoblastic Nephroma","asFound":"Congenital Mesoblastic Nephroma","relevance":"HIGH"},{"id":"T4918","name":"Renal Oncocytoma","relevance":"LOW"},{"id":"T4091","name":"Neuroendocrine Tumor","relevance":"LOW"},{"id":"T4092","name":"Neuroepithelioma","relevance":"LOW"}],"browseBranches":[{"abbrev":"BC04","name":"Neoplasms"},{"abbrev":"All","name":"All Conditions"},{"abbrev":"BC23","name":"Symptoms and General Pathology"},{"abbrev":"BXS","name":"Urinary Tract, Sexual Organs, and Pregnancy Conditions"},{"abbrev":"BC16","name":"Diseases and Abnormalities at or Before Birth"},{"abbrev":"BC17","name":"Skin and Connective Tissue Diseases"},{"abbrev":"Rare","name":"Rare Diseases"}]}},"hasResults":false}